"id","cod_SIMS","nombre","domicilio","localidad","telefono","email","internacion","dependencia","regimen","cod_municipio","municipio","departamento","nodo","lat","lon"
755,"06300214","Centro Asistencial Casa De Gobierno","3 de Febrero 2649","Santa Fe","042-21081",,"No","Provincial","No definido",0147,"Santa Fe","La Capital","Santa Fe","-31.65793","-60.71062"
704,"04901783","Centro Asistencial Nueva Fe","Barrio Nueva Fe","Reconquista",,,"No","Municipal","Provincial- Decreto Nacional 939",0112,"Reconquista","General Obligado","Reconquista","-29.1744","-59.65738"
1328,"06309874","Centro De Atención Ambulatoria Programada","Bv. Dr. Zavalla 3361","Santa Fe","(0342) 4572375 int 305",,"No","Provincial","Provincial- Decreto Nacional 939",0147,"Santa Fe","La Capital","Santa Fe","-31.63476","-60.71703"
838,"08417574","Centro De Especialidades Medicas Ambulatorias (CEMAR)","San Luís 2020","Rosario","0341 4802600",,"No","Municipal","Municipal/Comunal",0210,"Rosario","Rosario","Rosario","-32.94675","-60.6515"
1253,"06309820","Centro De Tratamiento Ambulatorio-Adicciones Casa Del Sol","Av. Freyre 2070","Santa Fe","0342-4573918",,"No","Provincial","Provincial- Decreto Nacional 939",0147,"Santa Fe","La Capital","Santa Fe","-31.649507119232","-60.719870758138"
785,"08400712","Centro Regional De Hemoterapia","Lavalle 356","Rosario","0341-4804888","centrodesangre@rosario.gov.ar","No","Provincial","Provincial- Decreto Nacional 939",0210,"Rosario","Rosario","Rosario","-32.934166666667","-60.676472222222"
218,"08404259","Centro Regional De Salud Mental Dr. Agudo Ávila","Suipacha 667","Rosario","0341-4724640/55/90","agudoavila@hotmail.com","Si","Provincial","Descentralizado - Ley Prov. 10608",0210,"Rosario","Rosario","Rosario","-32.940111111111","-60.663777777778"
844,"08418249","CIC 20 de Junio","Regimiento 11 Nº 1593","Villa Gobernador Gálvez","0341-4983413",,"No","Provincial","Provincial- Decreto Nacional 939",0217,"Villa Gobernador Gálvez","Rosario","Rosario","-33.02417","-60.60408"
707,"04901810","CIC Barrio América","Roca y Calle 63","Reconquista","03482-15614262","cic1@reconquista.gov.ar","No","Municipal","Provincial- Decreto Nacional 939",0112,"Reconquista","General Obligado","Reconquista","-29.16737","-59.64666"
846,"09800561","CIC Bo. Lujan","Islas Malvinas 2084","Romang","03482-15406680",,"No","Provincial","Provincial- Decreto Nacional 939",3715,"Romang","San Javier","Reconquista","-29.50795","-59.75669"
850,"13300785","CIC Calchaquí","A. P. Justo y Salta","Calchaquí","03483-15431523","calchaqui@gmail.com","No","Provincial","Provincial- Decreto Nacional 939",0329,"Calchaquí","Vera","Reconquista","-29.89328","-60.29037"
689,"06309395","CIC Callejón Roca","Callejón Roca 2300","Santa Fe","0342-4579140 centrex 9140","cicroca@outlook.com.ar","No","Provincial","SAMCo. Ley Provincial 63/12",0147,"Santa Fe","La Capital","Santa Fe","-31.578450000","-60.684216670"
848,"11901539","CIC Capitán Bermúdez","Laprida y Ayacucho","Capitán Bermúdez","0341-4782129-4913921","cicbermudez@netcoop.com.ar","No","Provincial","Provincial- Decreto Nacional 939",0266,"Capitán Bermúdez","San Lorenzo","Rosario","-32.80211","-60.72663"
568,"03500484","CIC Cayastá","Álvaro Gil s/n","Cayastá","03405/493011, centrex: 6226","samcocayasta09@yahoo.com.ar","No","Provincial","Provincial- Decreto Nacional 939",2539,"Cayastá","Garay","Santa Fe","-31.20182","-60.16358"
708,"04901819","CIC Florencia","San Roque 638","Florencia","03482-491105",,"No","Municipal","Provincial- Decreto Nacional 939",2798,"Florencia","General Obligado","Reconquista","-28.03798","-59.21541"
1273,"03500549","CIC Las Malvinas","RP 1 S Teófilo Madrejón Km 39","Santa Rosa De Calchines","0342-154355895","samco_santarosa@hotmail.com","No","Provincial","Provincial- Decreto Nacional 939",2567,"Santa Rosa de Calchines","Garay","Santa Fe","-31.39664","-60.32213"
692,"06309391","CIC Loyola Sur","J. Civils 6539","Santa Fe","0342-4579262 ctx 9262",,"No","Provincial","Provincial- Decreto Nacional 939",0147,"Santa Fe","La Capital","Santa Fe","-31.578433788166","-60.738854082981"
1254,"04902351","CIC Malabrigo","General Obligado 1111","Malabrigo","03482-445857","cicmalabrigo_salud@yahoo.com.ar","No","Provincial","Dep. de SAMCo.",0105,"Malabrigo","General Obligado","Reconquista","-29.35143","-59.97576"
373,"09800234","CIC San Javier - Fonavi","Hipólito Irigoyen y Gral. López","San Javier","03405-424611",,"No","Provincial","Provincial- Decreto Nacional 939",0238,"San Javier","San Javier","Santa Fe","-30.57883","-59.93681"
840,"06307536","CIC Sauce Viejo","Córdoba y Uruguay","Sauce Viejo","0342-4950212",,"No","Municipal","Municipal/Comunal",3029,"Sauce Viejo","La Capital","Santa Fe","-31.77448","-60.83664"
617,"02801162","CIC Villa Constitución Dr. Ramón Carrillo","Almafuerte y Calle Pbca Nº 3","Villa Constitución","03400-430010",,"No","Municipal","No definido",0056,"Villa Constitución","Constitución","Rosario","-33.22942","-60.3485"
735,"04901981","CIC Villa Ocampo","Güemes entre Pedro Giachino y San Vicent","Villa Ocampo","03482-469320","cicvillaocampo@gmail.com","No","Municipal","Municipal/Comunal",0119,"Villa Ocampo","General Obligado","Reconquista","-28.48311","-59.37152"
43,"05600133","Colonia Psiquiátrica Dr. Abelardo Freyre","RP 11 S - Km. 357","Oliveros","03476/498039 centrex 6406","coloniaoliveros@ihotmail.com","Si","Provincial","Descentralizado - Ley Prov. 10608",2917,"Oliveros","Iriondo","Rosario","-32.533426","-60.868861"
602,"11900581","CS 1 De Julio","Luis Borghi 52","San Lorenzo",,,"No","Municipal","Municipal/Comunal",0301,"San Lorenzo","San Lorenzo","Rosario","-32.75642","-60.72693"
1342,"02102783","CS 10 2 De Abril","Cortazza y M. Cetta","Rafaela",,,"No","Provincial","Provincial- Decreto Nacional 939",0042,"Rafaela","Castellanos","Rafaela","-31.27357","-61.47046"
571,"02800352","CS 17 De Octubre","Sivori 1005","Villa Constitución","03461-15354692","17deoctubre.centrodesalud@gmail.com","No","Municipal","Municipal/Comunal",0056,"Villa Constitución","Constitución","Rosario","-33.254290592783","-60.306403791704"
210,"08403363","CS 17 De Octubre","Corrientes 146","Villa Gobernador Gálvez","0341/4983428",,"No","Provincial","Provincial- Decreto Nacional 939",0217,"Villa Gobernador Gálvez","Rosario","Rosario","-33.00975","-60.60625"
601,"11900572","CS 2 De Abril","Sorrequieta 165 y calle 4","San Lorenzo",,,"No","Municipal","Municipal/Comunal",0301,"San Lorenzo","San Lorenzo","Rosario","-32.77772816743","-60.724090597639"
736,"11201054","CS 24 De Setiembre","Bv. Pellegrini y Reconquista","San Justo",,,"No","Municipal","Municipal/Comunal",0259,"San Justo","San Justo","Santa Fe","-30.79489","-60.58681"
49,"05600290","CS 25 De Mayo","Audano 653","Cañada De Gómez","03471-421715","cs25demayocdg@hotmail.com","No","Provincial","Provincial- Decreto Nacional 939",0126,"Cañada de Gómez","Iriondo","Rosario","-32.815569637928","-61.384075549015"
1298,"08423154","CS 7 De Abril","Urquiza 2906","Rosario","0341-4392600","cs7a@hotmail.com.ar","No","Nacional","Municipal/Comunal",0210,"Rosario","Rosario","Rosario","-32.938527777778","-60.662027777778"
515,"04200018","CS Aarón Castellanos","M Castellano de Anchorena s/n","Aarón Castellanos (Est. Castellanos)","03382 498028","aaronsalud@hotmail.com","No","Provincial","Provincial- Decreto Nacional 939",2574,"Aarón Castellanos (Est. Castellanos)","General López","Venado Tuerto","-34.33225","-62.37519"
122,"06309364","CS Abasto","Diagonal Avipones 12500","Santa Fe","0342- 4579133 ctx 9133",,"No","Provincial","Provincial- Decreto Nacional 939",0147,"Santa Fe","La Capital","Santa Fe","-31.561066670","-60.742316670"
1317,"06309856","CS Adelina Este","Diagonal 12 y 71","Sauce Viejo","0342 - 155119981","csadelinaeste@hotmail.com.ar","No","Municipal","Municipal/Comunal",3029,"Sauce Viejo","La Capital","Santa Fe","-31.701566667","-60.762866667"
93,"06301504","CS Adelina Oeste","Los Paraísos y Corrientes","Sauce Viejo","( 0342) 499-6210","adelinaoeste@hotmail.com","No","Municipal","Municipal/Comunal",3029,"Sauce Viejo","La Capital","Santa Fe","-31.694950000","-60.788316667"
238,"09100453","CS Aguara Grande","Zona urbana","Aguará Grande","03408-42272218(casa part.)",,"No","Provincial","Provincial- Decreto Nacional 939",3477,"Aguará Grande","San Cristóbal","Rafaela","-30.1167","-60.8833"
178,"08401662","CS Albarellos","Comercio 235","Albarellos","03402/494034","comalbarellos@coopvgg.com.ar","No","Municipal","SAMCo. Ley Provincial 63/12",3358,"Albarellos","Rosario","Rosario","-33.23804","-60.63846"
116,"06302357","CS Alberdi","A. Casanello 1515","Santa Fe","0342-4579102 ctx 9102",,"No","Provincial","Provincial- Decreto Nacional 939",0147,"Santa Fe","La Capital","Santa Fe","-31.611621281289","-60.683605284182"
410,"01400334","CS Alberdi","Washington 2903","Casilda","03464-423047",,"No","Municipal","Municipal/Comunal",0028,"Casilda","Caseros","Rosario","-33.040662978363","-61.177710177462"
315,"11900190","CS Aldao","Lisandro de La Torre 200","Aldao","03476-482037/6409","adrianasgrosso@hotmail.com","No","Provincial","Provincial- Decreto Nacional 939",3981,"Aldao","San Lorenzo","Rosario","-32.70581","-60.81527"
895,"08418636","CS Alfonsina Storni","Bermúdez 6390","Rosario","0341-4729677","centroalfonsinastorni@hotmail.com","No","Provincial","Provincial- Decreto Nacional 939",0210,"Rosario","Rosario","Rosario","-33.010667","-60.642222"
421,"06301814","CS Alicia Moreau De Justo","J.Civil y Valdez (Libertad)","Santo Tomé","(0342) 475-3463",,"No","Provincial","Provincial- Decreto Nacional 939",0154,"Santo Tomé","La Capital","Santa Fe","-31.654116667","-60.832483333"
685,"08400429","CS Alicia Moreau De Justo","Calle 1333 NRO 3040","Rosario","(0341) 4226162",,"No","Municipal","Municipal/Comunal",0210,"Rosario","Rosario","Rosario","-32.885111","-60.726417"
54,"06300010","CS Alto Verde","Manzana 2 Alto Verde","Santa Fe","0342-4571978 ctx 1978","gerardoroldan@yahoo.com.ar","No","Provincial","Provincial- Decreto Nacional 939",0147,"Santa Fe","La Capital","Santa Fe","-31.65937","-60.69986"
120,"06309288","CS Altos De Nogueras","Lamadrid 10590","Santa Fe","0342-4800311 (ctrex 4311)",,"No","Provincial","Provincial- Decreto Nacional 939",0147,"Santa Fe","La Capital","Santa Fe","-31.566366670","-60.704783330"
115,"06301997","CS Altos Del Valle","Los Azucenas 10350","Santa Fe","0342-4579217 ctx 9217",,"No","Provincial","Provincial- Decreto Nacional 939",0147,"Santa Fe","La Capital","Santa Fe","-31.573196554249","-60.684542581215"
544,"04200735","CS Amenábar","Pellegrini 840","Amenábar","03382/492071 centrex 6126","samcoamenabar@hotmail.com","No","Municipal","SAMCo. Ley Provincial 63/12",2581,"Amenábar","General López","Venado Tuerto","-34.13501","-62.42302"
376,"05600010","CS Andino","Pellegrini 911","Pueblo Andino","03476/496257","samcoandino@hotmail.com","No","Municipal","SAMCo. Ley Provincial 63/12",2924,"Pueblo Andino","Iriondo","Rosario","-32.67171","-60.88001"
539,"04200476","CS Ángel Bulgheroni","Santiago del Estero 52","Rufino","03382/428007",,"No","Provincial","Dep. de SAMCo.",0070,"Rufino","General López","Venado Tuerto","-34.25715","-62.70992"
118,"06302381","CS Ángel Gallardo","Dr. Ángel Gallardo 1700","Ángel Gallardo","0342-4904860 Centrex 4460",,"No","Provincial","Provincial- Decreto Nacional 939",0063,"Firmat","La Capital","Santa Fe","-31.554316667","-60.679183333"
444,"02100237","CS Angélica","Lisandro de la Torre 137","Angélica","03492/487534","samcoangelica@hotmail.com","No","Municipal","SAMCo. Ley Provincial 63/12",2112,"Angélica","Castellanos","Rafaela","-31.550129619658","-61.543330621364"
165,"08400038","CS Arminda","Belgrano 647","Arminda","03469 - 493075","comunaarminda@ri.com.ar","No","Municipal","SAMCo. Ley Provincial 63/12",3379,"Arminda","Rosario","Rosario","-33.26364","-60.96625"
263,"10500015","CS Arocena","Dr. Rovere 372","Arocena","03466/495138",,"No","Provincial","SAMCo. Ley Provincial 63/12",3722,"Arocena","San Jerónimo","Santa Fe","-32.07786","-60.97612"
55,"06300028","CS Arroyo Aguiar","Av. San Martín 46","Arroyo Aguiar","0342/4572544, centrex: 2544","enfermeriaarroyoaguiar@hotmail.com","No","Municipal","SAMCo. Ley Provincial 63/12",2952,"Arroyo Aguiar","La Capital","Santa Fe","-31.430016667","-60.667683333"
16,"04900401","CS Arroyo Ceibal","Zona urbana","Arroyo Ceibal","03482/497141",,"No","Provincial","Provincial- Decreto Nacional 939",2763,"Arroyo Ceibal","General Obligado","Reconquista","-28.72353","-59.47872"
413,"04200727","CS Asistencia Publica Municipal","Brown 478","Venado Tuerto","03462-436374","mvtsalud@yahoo.com.ar","No","Municipal","Municipal/Comunal",0077,"Venado Tuerto","General López","Venado Tuerto","-33.738705828346","-61.967743274015"
646,"08404372","CS Asistencial A La Comunidad","Esmeralda 2363","Rosario","0341-4808582",,"No","Provincial","Municipal/Comunal",0210,"Rosario","Rosario","Rosario","-32.967861111111","-60.626083333333"
445,"02100245","CS Ataliva","Dorrego 3100","Ataliva","03493/491057",,"No","Municipal","SAMCo. Ley Provincial 63/12",2119,"Ataliva","Castellanos","Rafaela","-30.99554","-61.43575"
365,"02100679","CS Aurelia","Aurelia entre Sgo.del Estero y Avda. Bs.","Aurelia","03492-488032",,"No","Provincial","Provincial- Decreto Nacional 939",2126,"Aurelia","Castellanos","Rafaela","-31.42066","-61.42443"
556,"04900109","CS Avellaneda","Calle 16 340","Avellaneda","03482/481952","samcoavd@trcnet.com.ar","No","Provincial","SAMCo. Ley Provincial 63/12",0091,"Avellaneda","General Obligado","Reconquista","-29.116043103023","-59.655858746057"
382,"06309389","CS Baradero Sarsotti","Calle Principal s/n","Santa Fe","(0342)4589428 ctx 9428",,"No","Provincial","Provincial- Decreto Nacional 939",0147,"Santa Fe","La Capital","Santa Fe","-31.66942","-60.73506"
594,"11900505","CS Barrio 3 De Febrero","Peatonal 2795","San Lorenzo",,,"No","Municipal","Municipal/Comunal",0301,"San Lorenzo","San Lorenzo","Rosario","-32.73151","-60.74843"
484,"02100946","CS Barrio Acapulco y Vera Cruz","Calle 2 esq. 5 ","Frontera",,"samcoacapulco@hotmail.com","No","Provincial","Provincial- Decreto Nacional 939",0035,"Frontera","Castellanos","Rafaela","-31.42071","-62.06029"
112,"06301873","CS Barrio Acería","Matheu 6250","Santa Fe","0342 - 4579101",,"No","Provincial","Provincial- Decreto Nacional 939",0147,"Santa Fe","La Capital","Santa Fe","-31.598284649082","-60.668916584328"
397,"04900702","CS Barrio Almafuerte","Almafuerte 475","Reconquista","03482/4614260",,"No","Municipal","Provincial- Decreto Nacional 939",0112,"Reconquista","General Obligado","Reconquista","-29.138177638605","-59.641225662084"
411,"01400342","CS Barrio Barracas","General Bartolomé Mitre 1165","Casilda","03464-427934","dispensariobarracas_yapeyu@hotmail.com","No","Municipal","Municipal/Comunal",0028,"Casilda","Caseros","Rosario","-33.054234099167","-61.162785445019"
62,"06300095","CS Barrio Barranquitas Oeste","Artigas 4100","Santa Fe","0342/4572505, centrex: 2505","csbarranquitasoeste@santafe.gov.ar","No","Provincial","Provincial- Decreto Nacional 939",0147,"Santa Fe","La Capital","Santa Fe","-31.620402102265","-60.719818917699"
33,"04900711","CS Barrio Belgrano","Calle 126 Esq. 115","Avellaneda","03482-552033",,"No","Provincial","Dep. de SAMCo.",0091,"Avellaneda","General Obligado","Reconquista","-29.1171","-59.68149"
111,"06301865","CS Barrio Cabal","Pje. Leiva 6859","Santa Fe","0342-4579263 centrex 9263",,"No","Provincial","Provincial- Decreto Nacional 939",0147,"Santa Fe","La Capital","Santa Fe","-31.605190834199","-60.691291889611"
282,"10500449","CS Barrio Caima","25 de Mayo s/n","Caima","0342/4900028",,"No","Municipal","Provincial- Decreto Nacional 939",3764,"Desvío Arijón","San Jerónimo","Santa Fe","-31.83314","-60.87194"
389,"06309392","CS Barrio Candioti","Bv. Gálvez 1563 (ex Hosp. de niños)","Santa Fe","0342-4572873- Centrex 2873","csbcandioti@hotmail.com.ar","No","Provincial","Provincial- Decreto Nacional 939",0147,"Santa Fe","La Capital","Santa Fe","-31.638063143896","-60.691865117825"
593,"11900491","CS Barrio Capitán Bermúdez","Silverio Córdoba 1660","San Lorenzo",,,"No","Municipal","Municipal/Comunal",0301,"San Lorenzo","San Lorenzo","Rosario","-32.734623706172","-60.745134857992"
386,"06309373","CS Barrio Chalet","Mariano Cabal 3951","Santa Fe","0342-4589420 ctx 9420","cschalet@hotmail.com.ar","No","Provincial","Provincial- Decreto Nacional 939",0147,"Santa Fe","La Capital","Santa Fe","-31.661765283739","-60.728937163794"
26,"04900583","CS Barrio Chapero","Roca 2023","Reconquista","03482-438450","capschaperocentro@yahoo.com.ar","No","Provincial","Provincial- Decreto Nacional 939",0112,"Reconquista","General Obligado","Reconquista","-29.15834879307","-59.645661215704"
665,"11900734","CS Barrio Copello","Uruguay 232","Capitán Bermúdez","0341-491-0317",,"No","Municipal","Municipal/Comunal",0266,"Capitán Bermúdez","San Lorenzo","Rosario","-32.823034269089","-60.72678393591"
18,"04900435","CS Barrio El Ombusal Ema Beatriz Cabral","Brown y Chacabuco","Reconquista","0348438434 ctx 9894",,"No","Provincial","Provincial- Decreto Nacional 939",0112,"Reconquista","General Obligado","Reconquista","-29.15241","-59.641"
108,"06301806","CS Barrio El Pozo","Mna. 19, al lado de la Comisaría","Santa Fe","0342-4577008 Centrex 7008",,"No","Municipal","SAMCo. Ley Provincial 63/12",0147,"Santa Fe","La Capital","Santa Fe","-31.635550000","-60.658983330"
669,"11900751","CS Barrio Fátima","Iguazú 1817","Puerto General San Martín","03476-429422",,"No","Municipal","Municipal/Comunal",0287,"Puerto General San Martín","San Lorenzo","Rosario","-32.70688","-60.74497"
903,"11201502","CS Barrio Fátima","Independencia y Calle 72","San Justo","03400-15515707","capsfatimasanjustosf@hotmail.com","No","Provincial","Dep. de SAMCo.",0259,"San Justo","San Justo","Santa Fe","-30.78751","-60.60707"
473,"02100784","CS Barrio Francucci","Calle 54 270","Frontera","03564 438853",,"No","Municipal","Dep. de SAMCo.",0035,"Frontera","Castellanos","Rafaela","-31.422667026284","-62.06016010099"
886,"04902035","CS Barrio Itatí","Calle 8 Entre Calle 3 y 5 Barrio Itatí","Las Toscas","03482 - 15446773","mrdeltin@hotmail.com","No","Municipal","Provincial- Decreto Nacional 939",0098,"Las Toscas","General Obligado","Reconquista","-28.36244","-59.25985"
29,"04900613","CS Barrio Itatí","RP 40 S y Calle 68","Reconquista","03482-15678546",,"No","Provincial","Provincial- Decreto Nacional 939",0112,"Reconquista","General Obligado","Reconquista","-29.15257","-59.67724"
228,"09100241","CS Barrio Juan XXIII","Bv. 25 de Mayo y Estanislao López","San Cristóbal",,,"No","Municipal","Dep. de SAMCo.",0231,"San Cristóbal","San Cristóbal","Rafaela","-30.31611","-61.24391"
4,"04900257","CS Barrio La Cortada","Constituyente y P. Diez","Reconquista","03482- 487168",,"No","Provincial","Provincial- Decreto Nacional 939",0112,"Reconquista","General Obligado","Reconquista","-29.14531","-59.63624"
30,"04900621","CS Barrio La Loma","Bo. Zulema Calle 105","Reconquista","03482-678502",,"No","Provincial","Provincial- Decreto Nacional 939",0112,"Reconquista","General Obligado","Reconquista","-29.18032","-59.66748"
667,"11900726","CS Barrio La Posta","13 de Marzo y Villaguay","Capitán Bermúdez","0341-4912751",,"No","Municipal","Municipal/Comunal",0266,"Capitán Bermúdez","San Lorenzo","Rosario","-32.81786","-60.71281"
603,"11900599","CS Barrio Las Quintas","Oroño s/n","San Lorenzo",,,"No","Municipal","Municipal/Comunal",0301,"San Lorenzo","San Lorenzo","Rosario","-32.72784","-60.76268"
595,"11900513","CS Barrio Leandro N Alem","9 de Julio 1243","San Lorenzo",,,"No","Municipal","Municipal/Comunal",0301,"San Lorenzo","San Lorenzo","Rosario","-32.737366000159","-60.740852552632"
605,"11900289","CS Barrio Los Pinos","Bermejo y Eva Perón","Carcarañá","0341-4943051","dptoinfo@arnet.com.ar","No","Municipal","Municipal/Comunal",0273,"Carcarañá","San Lorenzo","Rosario","-32.85028","-61.15748"
107,"06301792","CS Barrio Los Troncos","Troncoso 8183 Bº Los Troncos","Santa Fe","0342-4579292 ctx 9292",,"No","Provincial","Provincial- Decreto Nacional 939",0147,"Santa Fe","La Capital","Santa Fe","-31.581992956547","-60.744977856174"
1302,"03500557","CS Barrio Malabrigo","Los Andes y San Martín","Helvecia","03405/470164,centrex:6220",,"No","Provincial","Provincial- Decreto Nacional 939",2553,"Helvecia","Garay","Santa Fe","-31.09629","-60.08483"
664,"11900602","CS Barrio Mariano Moreno","Iriondo y 25 de Mayo","San Lorenzo",,,"No","Municipal","Municipal/Comunal",0301,"San Lorenzo","San Lorenzo","Rosario","-32.75402","-60.74128"
67,"06300206","CS Barrio Mendoza Oeste","Mendoza 4519","Santa Fe","0342-4573367 Centrex 3367","csmendozaoeste@santafe.gov.ar","No","Provincial","Provincial- Decreto Nacional 939",0147,"Santa Fe","La Capital","Santa Fe","-31.642796755966","-60.732153420907"
52,"05600401","CS Barrio Mercantil","Poleti 1299","Cañada De Gómez",,"centrosaludmercantil@yahoo.com.ar","No","Provincial","Provincial- Decreto Nacional 939",0126,"Cañada de Gómez","Iriondo","Rosario","-32.80847937755","-61.398076237776"
683,"02800441","CS Barrio Mitre","Colombia y Venezuela","Pavón",,,"No","Municipal","Municipal/Comunal",2490,"Pavón","Constitución","Rosario","-33.24234","-60.40559"
583,"08403643","CS Barrio Mortelari","Pasaje 4 y Alberdi","Villa Gobernador Gálvez","0341-4928802","josebartolucci@hotmail.com","No","Municipal","Municipal/Comunal",0217,"Villa Gobernador Gálvez","Rosario","Rosario","-33.03698","-60.62189"
677,"04201812","CS Barrio Nadal","Zona urbana","Firmat",,,"No","Municipal","Municipal/Comunal",0063,"Firmat","General López","Venado Tuerto","-33.4453","-61.49185"
1312,"07002430","CS Barrio Norte","Entre Ríos 1690","Pilar","03404 -471221","capsbnorte@hotmail.com","No","Provincial","Provincial- Decreto Nacional 939",3155,"Pilar","Las Colonias","Santa Fe","-31.43417","-61.25526"
19,"04900443","CS Barrio Norte","Olessio Nº 25","Reconquista",,,"No","Provincial","Provincial- Decreto Nacional 939",0112,"Reconquista","General Obligado","Reconquista","-29.136571938992","-59.648814038382"
592,"11900483","CS Barrio Norte San Francisco De Asís","C. Alvelo 3780","San Lorenzo","0341-155884789",,"No","Municipal","Municipal/Comunal",0301,"San Lorenzo","San Lorenzo","Rosario","-32.723652155416","-60.739081900654"
375,"09800226","CS Barrio Obrero","Calle 6 Nº 1680","Romang","3482-496009",,"No","Provincial","Dep. de SAMCo.",3715,"Romang","San Javier","Reconquista","-29.50697","-59.74235"
48,"05600281","CS Barrio Parque","Córdoba 23","Cañada De Gómez",,,"No","Provincial","Provincial- Decreto Nacional 939",0126,"Cañada de Gómez","Iriondo","Rosario","-32.818777675913","-61.410136091098"
407,"06309370","CS Barrio Parque","Crucero Belgrano y 12 de Octubre","Recreo","0342-154297725","capsbarrioparque@municipio-recreo.gov.ar","No","Municipal","Municipal/Comunal",0144,"Recreo","La Capital","Santa Fe","-31.528533333","-60.727016667"
235,"09100381","CS Barrio Pellegrini","Bv. Rivadavia 1850","San Cristóbal",,,"No","Municipal","Dep. de SAMCo.",0231,"San Cristóbal","San Cristóbal","Rafaela","-30.299748105203","-61.244686386654"
679,"06309383","CS Barrio Peyrano","B° Peirano s/n","Laguna Paiva",,,"No","Municipal","Municipal/Comunal",0140,"Laguna Paiva","La Capital","Santa Fe","-31.281383333","-60.650316667"
44,"02800476","CS Barrio Raviolo","Cabildo 92","Villa Constitución","Lamar/Samco Villa Constitucion","no","No","Provincial","SAMCo. Ley Provincial 63/12",0056,"Villa Constitución","Constitución","Rosario","-33.23041642784","-60.350883602144"
297,"11200163","CS Barrio Reyes","9 de Julio 2518","San Justo","03498-15460745",,"No","Provincial","Dep. de SAMCo.",0259,"San Justo","San Justo","Santa Fe","-30.788588786524","-60.592713856981"
420,"04201413","CS Barrio Rivadavia","26 de Abril","Venado Tuerto","03462-423743",,"No","Municipal","Municipal/Comunal",0077,"Venado Tuerto","General López","Venado Tuerto","-33.748361","-61.985472"
255,"09800129","CS Barrio San Antonio","Vicente Zaspe s/n","San Javier","03405-427040/15619039",,"No","Provincial","Provincial- Decreto Nacional 939",0238,"San Javier","San Javier","Santa Fe","-30.57102","-59.93132"
245,"09100534","CS Barrio San José","Los Lapachos s/n","San Cristóbal",,,"No","Municipal","Dep. de SAMCo.",0231,"San Cristóbal","San Cristóbal","Rafaela","-30.31381","-61.22363"
377,"02101276","CS Barrio San Roque","Calle 94 575","Frontera","03564- 311005 centrex 7645","csanroquefrontera@hotmail.com","No","Provincial","Dep. de SAMCo.",0035,"Frontera","Castellanos","Rafaela","-31.456519201551","-62.048688193571"
898,"04902234","CS Barrio Sur","Chacabuco y J. Bautista Alberdi","Villa Ocampo","03482-469725","capsbarriosur@vocampo.com.ar","No","Provincial","Dep. de SAMCo.",0119,"Villa Ocampo","General Obligado","Reconquista","-28.49525","-59.35177"
91,"06301482","CS Barrio Talleres","Bv. Mitre 3156","Laguna Paiva",,,"No","Provincial","Dep. de SAMCo.",0140,"Laguna Paiva","La Capital","Santa Fe","-31.294250000","-60.654883333"
179,"08401701","CS Barrio Talleres","Sáenz Peña 452","Villa Gobernador Gálvez","0341-4983412",,"No","Provincial","Provincial- Decreto Nacional 939",0217,"Villa Gobernador Gálvez","Rosario","Rosario","-33.017667","-60.612639"
647,"08404364","CS Barrio Toba","Mario Antonio Cisneros 6055","Rosario","0341/4805620",,"No","Municipal","Municipal/Comunal",0210,"Rosario","Rosario","Rosario","-32.98001","-60.70127"
572,"02800409","CS Barrio Troilo","Bo. Troilo","Villa Constitución","03461-15354697","marianamigliavaca@hotmail.com","No","Municipal","Municipal/Comunal",0056,"Villa Constitución","Constitución","Rosario","-33.24589","-60.3267"
148,"07000613","CS Barrio Unidos","Perú 709","Esperanza","03496-428610 centrex 4370",,"No","Provincial","Dep. de SAMCo.",0161,"Esperanza","Las Colonias","Santa Fe","-31.452341249113","-60.904691502125"
96,"06301628","CS Barrio Villa Hipódromo","Blas Parera 5110","Santa Fe","0342 - 4579279 ctx 9279","capshipodromo@yahoo.com.ar","No","Provincial","Provincial- Decreto Nacional 939",0147,"Santa Fe","La Capital","Santa Fe","-31.616861010288","-60.717817478091"
463,"02100601","CS Barrio Villani","Calle 100 7","Frontera","03564 311001",,"No","Municipal","Dep. de SAMCo.",0035,"Frontera","Castellanos","Rafaela","-31.440485297532","-62.069079055912"
398,"04900761","CS Barrio Virgen De Guadalupe","M 10 B° Guadalupe","Reconquista","03482-15551426",,"No","Provincial","Provincial- Decreto Nacional 939",0112,"Reconquista","General Obligado","Reconquista","-29.16134","-59.67913"
82,"06300532","CS Barrio Yapeyu","Av. 12 de Octubre 9711","Santa Fe","0342-4579138","capsyapeyu@hotmail.com","No","Provincial","Provincial- Decreto Nacional 939",0147,"Santa Fe","La Capital","Santa Fe","-31.567342141014","-60.73902700813"
22,"04900532","CS Barros Pazos","Zona rural","Barros Pazos","03482-15614256",,"No","Provincial","Provincial- Decreto Nacional 939",0112,"Reconquista","General Obligado","Reconquista","-29.18951","-59.73052"
597,"11900530","CS Bartolomé Mitre","Carugatti y Rivadavia","San Lorenzo","03476-432916",,"No","Municipal","Municipal/Comunal",0301,"San Lorenzo","San Lorenzo","Rosario","-32.74855","-60.75437"
465,"02100695","CS Bauer Y Sigel","Santa Fe s/n","Bauer Y Sigel","03492/489084 (Com.)",,"No","Provincial","Provincial- Decreto Nacional 939",2133,"Bauer y Sigel","Castellanos","Rafaela","-31.2715","-61.94344"
670,"11900769","CS Beaudrix","Brown y Gálvez","Roldán","0341-4962888","gaby_acquaroli@hotmail.com","No","Municipal","Municipal/Comunal",0294,"Roldán","San Lorenzo","Rosario","-32.8936","-60.90715"
691,"00700661","CS Belgrano","Calle 25 y Pasaje 2","Las Parejas",,,"No","Municipal","Municipal/Comunal",0014,"Las Parejas","Belgrano","Rosario","-32.68111","-61.53224"
464,"02100687","CS Bella Italia","Santa Fe 31","Bella Italia","03492-497009-497077-497740","comunadebellaitalia@arnet.com.ar","No","Municipal","Municipal/Comunal",2140,"Bella Italia","Castellanos","Rafaela","-31.28294","-61.40986"
11,"04900354","CS Berna","11 de Noviembre s/n","Berna","03482-15551536","gastonmendoza87@hotmail.com","No","Provincial","Provincial- Decreto Nacional 939",2770,"Berna","General Obligado","Reconquista","-29.27327","-59.84589"
155,"07700038","CS Bety Griselda Flores","Manuel Díaz y Adolfo Medina","Gato Colorado",,"panchomingo07@yahoo.com.ar","No","Municipal","SAMCo. Ley Provincial 63/12",3288,"Gato Colorado","9 De Julio","Rafaela","-28.02275","-61.18754"
260,"09800170","CS Bo. El Triangulo Dr. Mario Baroni","Bo. El triangulo","San Javier","0342-154064661",,"No","Provincial","Provincial- Decreto Nacional 939",0238,"San Javier","San Javier","Santa Fe","-30.57463","-59.92452"
600,"11900564","CS Bouchard Luis Leloir","Gurel 850","San Lorenzo",,,"No","Municipal","Municipal/Comunal",0301,"San Lorenzo","San Lorenzo","Rosario","-32.775859048798","-60.731123918611"
369,"02800433","CS Brisas Del Paraná","Barrio Unión","Villa Constitución","03461-15354693",,"No","Municipal","Dep. de SAMCo.",0056,"Villa Constitución","Constitución","Rosario","-33.23377","-60.31472"
1257,"06309811","CS Cabal","Zona urbana","Cabal","03498-15444831 (medico)","juanfernandovossler@gmail.com","No","Provincial","Provincial- Decreto Nacional 939",2966,"Cabal","La Capital","Santa Fe","-31.098833333","-60.747100000"
106,"06301784","CS Cabaña Leiva","E. J. Rosas 10300 Esq. P. Espinoza 5800","Santa Fe","0342-4579219 centrex 9219",,"No","Provincial","Provincial- Decreto Nacional 939",0147,"Santa Fe","La Capital","Santa Fe","-31.564764967795","-60.725800519325"
248,"09800021","CS Cacique Aracaiquin","Cacique Ariacaiquin (zona rural)","Cacique Ariacaiquín","0342-154064661",,"No","Provincial","Dep. de SAMCo.",3694,"Cacique Ariacaiquín","San Javier","Santa Fe","-30.65572","-60.2301"
542,"04200514","CS Cafferata","Belgrano 834","Cafferata",,,"No","Provincial","Provincial- Decreto Nacional 939",2588,"Cafferata","General López","Venado Tuerto","-33.43912","-62.08516"
56,"06300036","CS Campo Andino","Julio B Orono s/n","Campo Andino","03497/494751 centrex 7871",,"No","Provincial","Provincial- Decreto Nacional 939",2973,"Campo Andino","La Capital","Santa Fe","-31.239366667","-60.530116667"
511,"03500051","CS Campo Del Medio","Campo del Medio","Campo Del Medio","03405-470154(casa)",,"No","Provincial","Dep. de SAMCo.",2553,"Helvecia","Garay","Santa Fe","-31.15497","-60.13863"
14,"04900389","CS Campo Hardy","RN 11 s/n","Campo Hardy","03482/499125 ctx 6459",,"No","Municipal","SAMCo. Ley Provincial 63/12",2798,"Florencia","General Obligado","Reconquista","-28.14556","-59.26142"
80,"06300516","CS Candioti","Belgrano s/n","Candioti",,,"No","Provincial","Provincial- Decreto Nacional 939",2980,"Candioti","La Capital","Santa Fe","-31.401916667","-60.748933333"
546,"04201022","CS Cañada De Ucle","Rivadavia 891","Cañada Del Ucle","03465/4923932",,"No","Municipal","SAMCo. Ley Provincial 63/12",2595,"Cañada del Ucle","General López","Venado Tuerto","-33.40842","-61.61126"
351,"13300190","CS Cañada Ombú","Zona urbana","Cañada Ombú","03482-490720",,"No","Provincial","Provincial- Decreto Nacional 939",4142,"Cañada Ombú","Vera","Reconquista","-28.30881","-59.98123"
490,"02800034","CS Cañada Rica","R. Guiraldes 78","Cañada Rica","03460/499121","samcocdarica@hotmail.com","No","Municipal","SAMCo. Ley Provincial 63/12",2427,"Cañada Rica","Constitución","Rosario","-33.51716","-60.61232"
99,"06301709","CS Capilla San José","San José 7040","Santa Fe","0342/4579220- centrex: 9220",,"No","Provincial","Provincial- Decreto Nacional 939",0147,"Santa Fe","La Capital","Santa Fe","-31.599863420371","-60.709522318898"
239,"09100461","CS Capivara","RP 13 S","Capivara","03408-429977-Cabina publica",,"No","Provincial","SAMCo. Ley Provincial 63/12",3498,"Capivara","San Cristóbal","Rafaela","-30.46079595707","-61.273991249316"
547,"04201057","CS Carlos Casado","San Juan 971","Firmat","03465-425488",,"No","Provincial","Dep. de SAMCo.",0063,"Firmat","General López","Venado Tuerto","-33.45919","-61.48162"
516,"04200026","CS Carmen","San Martín 350","Carmen","03462/493012, centrex: 6299","samcocarmen@hotmail.com","No","Municipal","SAMCo. Ley Provincial 63/12",2602,"Carmen","General López","Venado Tuerto","-33.73281","-61.75829"
517,"04200034","CS Carreras","Aldao 246","Carreras","03465/490305","samco_carreras@hotmail.com","No","Municipal","SAMCo. Ley Provincial 63/12",2609,"Carreras","General López","Venado Tuerto","-33.59724","-61.30992"
36,"05600044","CS Carrizales","Centenario 503","Carrizales (Est. Clarke)","03476/497145","samcocarrizales@hotmail.com","No","Provincial","SAMCo. Ley Provincial 63/12",2889,"Carrizales (Est. Clarke)","Iriondo","Rosario","-32.50848","-61.02783"
281,"10500414","CS Casalegno","Zona urbana","Casalegno","03466/490001",,"No","Municipal","SAMCo. Ley Provincial 63/12",3750,"Casalegno","San Jerónimo","Santa Fe","-32.26262","-61.12535"
611,"08401671","CS Casiano Casas","Casiano Casas 970","Rosario","0341-4806631",,"No","Municipal","Municipal/Comunal",0210,"Rosario","Rosario","Rosario","-32.905972","-60.697278"
672,"11900742","CS Catalina Salomón","Sarmiento 1142","Puerto General San Martín","03476-429622",,"No","Municipal","Municipal/Comunal",0287,"Puerto General San Martín","San Lorenzo","Rosario","-32.7136","-60.73809"
379,"07000761","CS Cavour","9 de Julio s/n","Cavour","03496-495024","comunadecavour@yahoo.com.ar","No","Provincial","Provincial- Decreto Nacional 939",3036,"Cavour","Las Colonias","Santa Fe","-31.36534","-61.01633"
285,"11200015","CS Cayastacito","Zona urbana","Cayastacito","03497-486071 Centrex8651",,"No","Municipal","SAMCo. Ley Provincial 63/12",3869,"Cayastacito","San Justo","Santa Fe","-31.11249","-60.57926"
135,"07000451","CS Ceferino Namuncurá","Santiago del Estero 216 B Los Troncos","Esperanza","03496-422729",,"No","Provincial","Dep. de SAMCo.",0161,"Esperanza","Las Colonias","Santa Fe","-31.459858338025","-60.935772812827"
619,"08404291","CS Ceferino Namuncurá","José Ingenieros 8590","Rosario","0341-4807842",,"No","Municipal","Municipal/Comunal",0210,"Rosario","Rosario","Rosario","-32.918083333333","-60.748833333333"
32,"04900656","CS Ceferino Vicentin","Calle 305 85","Avellaneda",,,"No","Provincial","Dep. de SAMCo.",0091,"Avellaneda","General Obligado","Reconquista","-29.108685771812","-59.662521472457"
404,"06301296","CS Centenario","Rivadavia 1190","Sauce Viejo","0342-4950065","centrodesaludcentenario@hotmail.com.ar","No","Municipal","Municipal/Comunal",3029,"Sauce Viejo","La Capital","Santa Fe","-31.771583333","-60.837033333"
265,"10500058","CS Centeno","Bv. Fdo. Centeno 1124","Centeno","03401/498733","samcocenteno@hotmail.com","No","Municipal","SAMCo. Ley Provincial 63/12",3757,"Centeno","San Jerónimo","Rosario","-32.296","-61.4085"
491,"02800042","CS Cepeda","C. Colazo 185","Cepeda","03460/491195","comuna_cepeda@hotmail.com","No","Municipal","SAMCo. Ley Provincial 63/12",2434,"Cepeda","Constitución","Rosario","-33.39679","-60.62438"
518,"04200042","CS Chapuy","Av. La Plata 226","Chapuy","03462/494023, centrex: 6300",,"No","Municipal","SAMCo. Ley Provincial 63/12",2616,"Chapuy","General López","Venado Tuerto","-33.79746","-61.74548"
545,"04200751","CS Christophersen","Calle B s/n","Christophersen","03462/485001, centrex: 6297",,"No","Municipal","Dep. de SAMCo.",2630,"Christophersen","General López","Venado Tuerto","-34.18488","-62.02548"
109,"04201421","CS Ciudad Nueva","Amincton 535","Venado Tuerto",,,"No","Municipal","Municipal/Comunal",0077,"Venado Tuerto","General López","Venado Tuerto","-33.737883852475","-61.946408223138"
37,"05600052","CS Clason","25 de Diciembre s/n","Classon","03471/499036","comunaclason@arnet.com.ar","No","Municipal","SAMCo. Ley Provincial 63/12",2896,"Classon","Iriondo","Rosario","-32.46069","-61.29127"
686,"04201561","CS Club Belgrano","B. Bianco 10","Rufino",,,"No","Municipal","Municipal/Comunal",0070,"Rufino","General López","Venado Tuerto","-34.25861","-62.71302"
57,"06300044","CS Colastiné","Las Guindas 6800 Km. 3 Ruta Prov 1","Colastiné","0342-4574927, centrex: 4927","centrocomunitatio@live.com.ar","No","Provincial","Provincial- Decreto Nacional 939",0063,"Firmat","La Capital","Santa Fe","-31.623566667","-60.603100000"
674,"06301440","CS Colastiné Sur","Colastiné Sur s/n - En la Parroquia","Colastiné",,,"No","Provincial","Provincial- Decreto Nacional 939",0063,"Firmat","La Capital","Santa Fe","-31.663600000","-60.605800000"
356,"13300238","CS Colmena","Zona urbana","Colmena","03482-490303",,"No","Provincial","Provincial- Decreto Nacional 939",4170,"Intiyaco","Vera","Reconquista","-28.75969","-60.09346"
256,"09800137","CS Colonia  Yatai","Zona rural","Colonia Yatay"," Minuti Brenda 03405-15455931",,"No","Provincial","Dep. de SAMCo.",0238,"San Javier","San Javier","Santa Fe","-30.20805","-59.94625"
467,"02100717","CS Colonia Aldao","Moreno 280","Colonia Aldao"," 03493-497325",,"No","Provincial","Provincial- Decreto Nacional 939",2147,"Colonia Aldao","Castellanos","Rafaela","-30.98016","-61.74383"
393,"02101306","CS Colonia Bicha","Corrientes s/n","Colonia Bicha","03493-492710","comunabicha@cooptacural.com.ar","No","Provincial","Provincial- Decreto Nacional 939",2154,"Colonia Bicha","Castellanos","Rafaela","-30.85426","-61.84951"
370,"09100631","CS Colonia Bossi","Zona urbana","Colonia Bossi"," 03409-420480- Comuna",,"No","Provincial","Provincial- Decreto Nacional 939",3512,"Colonia Bossi","San Cristóbal","Rafaela","-30.66738","-61.78846"
296,"11200155","CS Colonia Dolores","Zona rural","Colonia Dolores",,,"No","Provincial","Provincial- Decreto Nacional 939",3876,"Colonia Dolores","San Justo","Santa Fe","-30.3811","-60.32978"
252,"09800081","CS Colonia Duran","Zona rural","Colonia Durán",,,"No","Provincial","Provincial- Decreto Nacional 939",3701,"Colonia Durán","San Javier","Reconquista","-29.56101","-59.92733"
890,"11200686","CS Colonia Esther","Zona rural","Colonia Esther","03498-15444831 (medico)","juanfernandovossler@gmail.com","No","Provincial","Provincial- Decreto Nacional 939",3883,"Colonia Esther","San Justo","Santa Fe","-31.04097","-60.64395"
374,"09800099","CS Colonia Francesa","Zona rural","Colonia Francesa","03405-15619039",,"No","Provincial","Dep. de SAMCo.",0238,"San Javier","San Javier","Santa Fe","-30.65103","-59.96852"
258,"09800153","CS Colonia La Criolla","Zona rural","La Criolla","03405-15480282",,"No","Provincial","Provincial- Decreto Nacional 939",0238,"San Javier","San Javier","Santa Fe","-30.22545","-60.36127"
469,"02100741","CS Colonia Margarita","San Martín 265","Colonia Margarita"," 03492-495308",,"No","Provincial","Provincial- Decreto Nacional 939",2189,"Colonia Margarita","Castellanos","Rafaela","-31.6866","-61.64743"
512,"03500069","CS Colonia Norte","Zona rural","Helvecia","03405-470160",,"No","Provincial","Provincial- Decreto Nacional 939",2553,"Helvecia","Garay","Santa Fe","-31.05656","-60.09043"
678,"07000893","CS Colonia Nueva","Sgo. Copes s/n","Humboldt",,,"No","Municipal","Municipal/Comunal",3099,"Humboldt","Las Colonias","Santa Fe","-31.36157","-61.14486"
229,"09100313","CS Colonia Rosa","Juan Geordano entre Sta. Fe y Centenario","Colonia Rosa","03562/465066","no tienen","No","Municipal","SAMCo. Ley Provincial 63/12",3519,"Colonia Rosa","San Cristóbal","Rafaela","-30.30036","-61.9816"
262,"03500196","CS Colonia San Joaquín","Zona rural","Colonia San Joaquín","03405/424525Samco Masias",,"No","Provincial","Provincial- Decreto Nacional 939",2546,"Colonia Mascías","Garay","Santa Fe","-30.75477","-59.99754"
298,"11200252","CS Colonia Silva","Zona urbana","Colonia Silva","03498/480591","samcosilva@outlook.com","No","Provincial","SAMCo. Ley Provincial 63/12",3960,"Silva","San Justo","Santa Fe","-30.44769","-60.42961"
253,"09800102","CS Colonia Teresa","Zona rural","Colonia Teresa","Enferm ( 03405-15430202)",,"No","Provincial","Dep. de SAMCo.",0000,"Colonia Teresa","San Javier","Santa Fe","-30.25294","-59.96969"
587,"08403694","CS Comunal De Piñero","Sara Pacheco y 9 de Julio","Piñero (Est. Erasto)","03402-461151","comunadepiniero@arnet.com.ar","No","Municipal","Municipal/Comunal",3421,"Piñero (Est. Erasto)","Rosario","Rosario","-33.10835","-60.79531"
843,"08418240","CS Comunitario Oeste David Estafieri","Av. Perón 4540 - Barrio Bella Vista","Rosario","(0341) 480-5647",,"No","Provincial","Provincial- Decreto Nacional 939",0210,"Rosario","Rosario","Rosario","-32.958277777778","-60.690388888889"
240,"09100470","CS Constanza","Zona urbana","Constanza","03409/420208",,"No","Municipal","SAMCo. Ley Provincial 63/12",3526,"Constanza","San Cristóbal","Rafaela","-30.66233","-61.32259"
76,"06300460","CS Constituyentes (Ex Villa Laura)","Calle 6 s/n","Villa Laura (Est. Constituyentes)","0342 4579087","constituyentes9087@yahoo.com","No","Provincial","Provincial- Decreto Nacional 939",2952,"Arroyo Aguiar","La Capital","Santa Fe","-31.371600000","-60.662650000"
396,"02100989","CS Consultorio Periférico Móvil",,"Rafaela",,,"No","Municipal","Municipal/Comunal",0042,"Rafaela","Castellanos","Rafaela","-31.24825","-61.51885"
185,"08402430","CS Coronel Domínguez","Coronel Domínguez 370","Coronel Domínguez","03402/493138","dominguezsalud@hotmail.com","No","Provincial","Provincial- Decreto Nacional 939",3470,"Coronel Domínguez","Rosario","Rosario","-33.18448","-60.72137"
39,"05600095","CS Correa","Rivadavia 1366","Correa","03471/492251 centrex 6395","samcocorrea@hotmail.com","No","Municipal","SAMCo. Ley Provincial 63/12",2903,"Correa","Iriondo","Rosario","-32.85015515004","-61.255500702818"
676,"08405244","CS Costa Paraná","Costa Río Paraná","Fighiera","03402/470746","comunadefighiera@connet.com.ar","No","Municipal","Municipal/Comunal",3400,"Fighiera","Rosario","Rosario","-33.17257","-60.43975"
70,"06300249","CS Cristo Obrero Villa Del Parque","Padre Catena 4389- V. Parque","Santa Fe","0342/4574894, centrex: 4894","csvilladelparque@santafe.gov.ar","No","Provincial","Provincial- Decreto Nacional 939",0147,"Santa Fe","La Capital","Santa Fe","-31.631776473726","-60.722590586927"
151,"07000826","CS Cululú","Zona urbana","Cululú",,,"No","Provincial","Dep. de SAMCo.",3050,"Cululú","Las Colonias","Santa Fe","-31.20544","-60.93025"
832,"08417511","CS Débora Ferrandini","Provincias Unidas bis 151","Rosario","0341-4807680 (int) 377",,"No","Municipal","Municipal/Comunal",0210,"Rosario","Rosario","Rosario","-32.929916666667","-60.713027777778"
113,"06301890","CS Demetrio Gómez","Manzana 13 Alto Verde","Santa Fe","0342-4571942 ctx 1942",,"No","Provincial","Provincial- Decreto Nacional 939",0147,"Santa Fe","La Capital","Santa Fe","-31.66745","-60.69959"
278,"10500244","CS Desvió Arijón","Avda. José Arijón s/n","Desvío Arijón","0342-4910565","samcodesvioarijon@hotmail.com.ar","No","Municipal","SAMCo. Ley Provincial 63/12",3764,"Desvío Arijón","San Jerónimo","Santa Fe","-31.83226","-60.8734"
520,"04200069","CS Diego De Alvear","Mendiluce y España","Diego De Alvear","03382/493256",,"No","Municipal","SAMCo. Ley Provincial 63/12",2637,"Diego de Alvear","General López","Venado Tuerto","-34.37049","-62.12895"
609,"11900459","CS Don Segundo Pillado","General Paz 258","Capitán Bermúdez","0341-4913996",,"No","Municipal","Municipal/Comunal",0266,"Capitán Bermúdez","San Lorenzo","Rosario","-32.831969927256","-60.716822796694"
95,"06301521","CS Doña Margarita Barrio Areneras","Pje. Bouchard 1055","Sauce Viejo","0342-155119974","csmargarita@hotmail.com.ar","No","Municipal","Municipal/Comunal",3029,"Sauce Viejo","La Capital","Santa Fe","-31.743800000","-60.818416667"
731,"08408203","CS Dr. Abel E. Faust","Maipú 767","Funes","0341-4936555",,"No","Municipal","Municipal/Comunal",0189,"Funes","Rosario","Rosario","-32.91367","-60.79794"
574,"08400071","CS Dr. Bernardo Houssay","Sarmiento y Angelone","Funes","0341-4936010","funesalud@yahoo.com","No","Municipal","Municipal/Comunal",0189,"Funes","Rosario","Rosario","-32.91888","-60.8116"
480,"02100890","CS Dr. Carlos Franzini","25 de Mayo 603","Tacural","03493-492452","centrosaludtacural@gmail.com","No","Provincial","Provincial- Decreto Nacional 939",2371,"Tacural","Castellanos","Rafaela","-30.84474","-61.59133"
551,"04201341","CS Dr. Domingo Cera","Domingo Cera 1220","Firmat","03465-421899",,"No","Provincial","Dep. de SAMCo.",0063,"Firmat","General López","Venado Tuerto","-33.47283","-61.48805"
470,"02100750","CS Dr. Domingo Preiti","9 de Julio s/n","Egusquiza","03492- 484510",,"No","Municipal","SAMCo. Ley Provincial 63/12",2210,"Egusquiza","Castellanos","Rafaela","-31.09594","-61.6288"
307,"11900084","CS Dr. Eduardo Gerbaix","Lucia Miranda 335","Timbúes","03476/495057 centex 6413","comunatimbues@gmail.com","No","Provincial","SAMCo. Ley Provincial 63/12",4030,"Timbúes","San Lorenzo","Rosario","-32.66615","-60.79536"
566,"08414176","CS Dr. Ernesto Che Guevara","Calle 1709 (27 de feb. y Circunvalación)","Rosario","0341-4727507",,"No","Provincial","Provincial- Decreto Nacional 939",0210,"Rosario","Rosario","Rosario","-32.96092","-60.72161"
576,"08404577","CS Dr. Esteban Laureano Maradona","Maiztegui 2498","Funes","0341-4936012",,"No","Municipal","Municipal/Comunal",0189,"Funes","Rosario","Rosario","-32.91905","-60.86188"
1256,"11902528","CS Dr. Esteban Laureano Maradona","San Martín y Eva Perón","San Lorenzo",,,"No","Municipal","Municipal/Comunal",0301,"San Lorenzo","San Lorenzo","Rosario","-32.7272","-60.73272"
136,"07000460","CS Dr. Esteban Maradona","Simón Iriondo 5888","Esperanza","03496-422574 centrex 4254",,"No","Provincial","Dep. de SAMCo.",0161,"Esperanza","Las Colonias","Santa Fe","-31.417244718872","-60.920520771944"
631,"08404275","CS Dr. Esteban Maradona","Cochabamba 5103","Rosario","0341/4807847",,"No","Municipal","Municipal/Comunal",0210,"Rosario","Rosario","Rosario","-32.949277777778","-60.693388888889"
894,"12601277","CS Dr. Fernando O Degano","Córdoba 1002","El Trébol",,,"No","Municipal","Municipal/Comunal",0308,"El Trébol","San Martín","Rosario","-32.20661","-61.70055"
1304,"09101873","CS Dr. Isaac Warchavsky","Centenario s/n Bo. Pueblo Nuevo","San Guillermo","03562-468185",,"No","Provincial","Provincial- Decreto Nacional 939",3645,"San Guillermo","San Cristóbal","Santa Fe","-30.35329","-61.89633"
6,"04900290","CS Dr. Jorge Caniza","Calle Nº 5 al lado de la Comisaria","Tacuarendí","03482/492311","capstacuarendi@hotmail.com","No","Provincial","Provincial- Decreto Nacional 939",2861,"Tacuarendí","General Obligado","Reconquista","-28.41351","-59.25939"
519,"04200051","CS Dr. Jorge Semorile","San Martín 560","Chovet","03465/493710 Ctrex 8610","centrodesaludchovet@hotmail.com","No","Municipal","SAMCo. Ley Provincial 63/12",2623,"Chovet","General López","Venado Tuerto","-33.59969","-61.60734"
395,"02101411","CS Dr. José Costa","Aarón Castellanos 204","Coronel Fraga","03492-481088","adrianamagnoli@yahoo.com.ar","No","Provincial","SAMCo. Ley Provincial 63/12",2203,"Coronel Fraga","Castellanos","Rafaela","-31.1744","-61.9177"
152,"07000842","CS Dr. Orlando Alassia","Av. Centenario s/n","Elisa","03498-499430","centrosalud_elisa@hotmail.com","No","Provincial","Provincial- Decreto Nacional 939",3057,"Elisa","Las Colonias","Santa Fe","-30.69462","-61.05038"
269,"10500112","CS Dr. Raúl Renedo","San Jerónimo 566","Bernardo De Irigoyen (Est. Irigoyen)","03466/494125,centrex:6349","samcobernardo@cosmol.com.ar","No","Municipal","SAMCo. Ley Provincial 63/12",3736,"Bernardo de Irigoyen (Est. Irigoyen)","San Jerónimo","Santa Fe","-32.16953","-61.15769"
441,"01400148","CS Dr. René Favaloro","RP 33 S Nº 458","Villada","03465/491072, centrex: 6325",,"No","Municipal","SAMCo. Ley Provincial 63/12",2105,"Villada","Caseros","Venado Tuerto","-33.34934","-61.44486"
577,"08400364","CS Dr. Roque Pérez","Rivadavia 1135","Pérez","0341/4951209",,"No","Municipal","Municipal/Comunal",0203,"Pérez","Rosario","Rosario","-32.99787","-60.76854"
817,"08405131","CS Dr. Salvador Mazza","Grandoli Floduardo 3498","Rosario","0341-4806636","c.s.salvadormazza@gmail.com","No","Municipal","Municipal/Comunal",0210,"Rosario","Rosario","Rosario","-32.887138888889","-60.734166666667"
615,"08403231","CS Dr. Víctor Cue","Juan José Paso 2490","Rosario","0341/4388990",,"No","Municipal","Municipal/Comunal",0210,"Rosario","Rosario","Rosario","-32.919805555556","-60.699194444444"
416,"04201219","CS Dr. Vidalle","Sarmiento 802","Murphy","03462 - 441977","centrovidalle_murphy@yahoo.com.ar","No","Municipal","Municipal/Comunal",2707,"Murphy","General López","Venado Tuerto","-33.63816","-61.85204"
621,"08402014","CS Dr. David Staffieri","Presidente Perón 4540","Rosario","0341/4805647",,"No","Municipal","Municipal/Comunal",0210,"Rosario","Rosario","Rosario","-32.958277777778","-60.690388888889"
552,"04201359","CS Dr. Julio Maiztegui","Solís y 1º de Mayo","Firmat",,,"No","Provincial","Dep. de SAMCo.",0063,"Firmat","General López","Venado Tuerto","-33.4683","-61.48535"
529,"04200221","CS Dra. Carmen Castilla Murphy","Córdoba 211","Murphy","03462/441972- 441254","samcomurphy@enredes.com.ar","No","Municipal","SAMCo. Ley Provincial 63/12",2707,"Murphy","General López","Venado Tuerto","-33.64636","-61.85996"
89,"06301466","CS Dra. Griselda Merati","J. B. Justo y Las Heras","Laguna Paiva",,,"No","Provincial","Dep. de SAMCo.",0140,"Laguna Paiva","La Capital","Santa Fe","-31.301683333","-60.671500000"
17,"04900427","CS El Araza","Adolfo Díaz y Valentín Niemig","El Arazá",,,"No","Provincial","Provincial- Decreto Nacional 939",2777,"El Arazá","General Obligado","Reconquista","-29.13292","-59.94775"
705,"04901792","CS El Carmen","RP 31 S Km 37","Avellaneda","03482-1564244",,"No","Municipal","Provincial- Decreto Nacional 939",0091,"Avellaneda","General Obligado","Reconquista","-28.79705","-59.69138"
651,"08404321","CS El Gaucho","Nicolás Avellaneda 5625","Rosario","0341-4809779","anibalfc@hotmail.com","No","Municipal","Municipal/Comunal",0210,"Rosario","Rosario","Rosario","-33.00347","-60.6888"
246,"09100551","CS El Lucero","Zona Suburbana","El Lucero",,,"No","Provincial","Provincial- Decreto Nacional 939",0231,"San Cristóbal","San Cristóbal","Rafaela","-29.90534","-60.84347"
648,"08404356","CS El Mangrullo","El Mangrullo 5150","Rosario","0341-4809773",,"No","Municipal","Municipal/Comunal",0210,"Rosario","Rosario","Rosario","-32.998916666667","-60.615111111111"
153,"07700011","CS El Nochero","Santa Fe s/n","Gregoria Pérez De Denis (Est. El Nochero)",,,"No","Municipal","SAMCo. Ley Provincial 63/12",3295,"Gregoria Pérez de Denis (Est. El Nochero)","9 De Julio","Rafaela","-28.22839","-61.52503"
557,"04900133","CS El Rabón","RN 11 Km 905","El Rabón","(03482) 451003","capselrabon@hotmail.com","No","Provincial","Provincial- Decreto Nacional 939",2784,"El Rabón","General Obligado","Reconquista","-28.22738","-59.26346"
558,"04900141","CS El Sombrerito","Zona urbana","El Sombrerito",,"caps_elsombrerito@hotmail.com","No","Provincial","Provincial- Decreto Nacional 939",2791,"El Sombrerito","General Obligado","Reconquista","-28.65579","-59.42753"
15,"04900397","CS El Yaguareté","RN 11 - Km 899","Yaguareté",,,"No","Provincial","Provincial- Decreto Nacional 939",0098,"Las Toscas","General Obligado","Reconquista","-28.35","-59.2833"
639,"08403347","CS Elena Bazet (Ex San Fco Solano)","Madre Cabrini 2717","Rosario","0341-4809197",,"No","Municipal","Municipal/Comunal",0210,"Rosario","Rosario","Rosario","-33.00573","-60.67139"
625,"08403274","CS Emaus","Urdinarrain 7900","Rosario","0341/4807804",,"No","Municipal","Municipal/Comunal",0210,"Rosario","Rosario","Rosario","-32.917027777778","-60.73275"
114,"06301971","CS Emaus","Zavalía 342","Santa Fe","(0342) 4572524 ctx 2524",,"No","Provincial","Provincial- Decreto Nacional 939",0147,"Santa Fe","La Capital","Santa Fe","-31.668623646962","-60.726337141145"
60,"06300079","CS Emilia","Zona urbana","Emilia","03497-493033 ctx 1296",,"No","Municipal","Dep. de SAMCo.",2987,"Emilia","La Capital","Santa Fe","-31.056716667","-60.743916667"
391,"07000931","CS Empalme San Carlos","Zona urbana","Empalme San Carlos",,,"No","Provincial","Provincial- Decreto Nacional 939",3064,"Empalme San Carlos","Las Colonias","Santa Fe","-31.54764","-60.81302"
504,"02800280","CS Empalme Villa Constitución","Rivadavia 179","Empalme Villa Constitución","03400/493123","sabrinadiaz234@gmail.com","No","Provincial","SAMCo. Ley Provincial 63/12",2441,"Empalme Villa Constitución","Constitución","Rosario","-33.26123","-60.37901"
471,"02100768","CS Esmeralda","Avda. Centenario 387","Esmeralda","03492-498110","comunadeesmeralda@mmcdigital.com.ar","No","Provincial","Provincial- Decreto Nacional 939",2217,"Esmeralda","Castellanos","Rafaela","-31.61621","-61.93077"
358,"13300262","CS Espin","a 15Km. de Hosp. Vera por Ruta 11","Espin",,,"No","Provincial","Provincial- Decreto Nacional 939",0336,"Vera","Vera","Reconquista","-29.53885","-60.22197"
472,"02100776","CS Estación Clucellas","Presidente Perón s/n entre Paraná y 9 de Julio","Estación Clucellas","03492/495374",,"No","Municipal","SAMCo. Ley Provincial 63/12",2224,"Estación Clucellas","Castellanos","Rafaela","-31.52413","-61.71778"
101,"06301725","CS Estanislao López","Piedrabuena 6066","Santa Fe","0342-4579288 centrex 9288",,"No","Provincial","Provincial- Decreto Nacional 939",0147,"Santa Fe","La Capital","Santa Fe","-31.577308394353","-60.73444456484"
154,"07700020","CS Esteban Rams","John Kennedy s/n","Esteban Rams",,,"No","Municipal","SAMCo. Ley Provincial 63/12",3281,"Esteban Rams","9 De Julio","Rafaela","-29.77106","-61.48883"
458,"02100547","CS Eusebia Dr. Saúl Gómez","Sáenz Peña 238","Eusebia","03493/493430 (Comuna.)","samcoeusebia@hotmail.com.ar","No","Municipal","SAMCo. Ley Provincial 63/12",2231,"Eusebia","Castellanos","Rafaela","-30.9477","-61.85576"
653,"08404305","CS Eva Duarte","Alfredo Rovillon 2095","Rosario","0341- 4807844",,"No","Municipal","Municipal/Comunal",0210,"Rosario","Rosario","Rosario","-32.953","-60.701722"
423,"06301831","CS Eva Duarte de Perón","Córdoba y Necochea Bo El Chaparral","Santo Tomé","0342 4753464",,"No","Municipal","Provincial- Decreto Nacional 939",0154,"Santo Tomé","La Capital","Santa Fe","-31.659133333","-60.766666667"
575,"08404569","CS Eva Perón","Arnoldo Calvo 2095","Funes","4936011",,"No","Municipal","Dep. de SAMCo.",0189,"Funes","Rosario","Rosario","-32.91001","-60.81463"
401,"10500481","CS Eva Perón","La Pampa s/n","Maciel",,,"No","Municipal","Municipal/Comunal",3820,"Maciel","San Jerónimo","Rosario","-32.45711","-60.89048"
570,"02800344","CS Eva Perón","J. J. Valle 735","Villa Constitución","03461-15354696",,"No","Municipal","Municipal/Comunal",0056,"Villa Constitución","Constitución","Rosario","-33.219673772198","-60.343582394668"
368,"10500457","CS Eva Perón","Sgto. Cabral y 9 de Julio 689","Gálvez","03404/431001","csevaperon@hotmail.com","No","Provincial","Dep. de SAMCo.",0252,"Gálvez","San Jerónimo","Santa Fe","-32.03137","-61.22953"
580,"08403401","CS Evita","Chubut 1512","Villa Gobernador Gálvez","0341-4928803",,"No","Municipal","Municipal/Comunal",0217,"Villa Gobernador Gálvez","Rosario","Rosario","-33.033861","-60.63175"
105,"06301768","CS Evita Barrio La Florida","R. S. Peña 2022","Santa Fe","4572525 ctx 2525",,"No","Provincial","Provincial- Decreto Nacional 939",0147,"Santa Fe","La Capital","Santa Fe","-31.648825050174","-60.726635663483"
363,"08401689","CS Fighiera","Moreno 1040","Fighiera","03402/470746","centrodesalud_fighiera@hotmail.com","No","Provincial","Provincial- Decreto Nacional 939",3400,"Fighiera","Rosario","Rosario","-33.19343","-60.47071"
23,"04900541","CS Flor De Oro","Flor de Oro","Flor De Oro",,,"No","Provincial","Provincial- Decreto Nacional 939",2826,"Lanteri","General Obligado","Reconquista","-28.92482","-59.6556"
102,"06301733","CS Fonavi Barrio Centenario","Libertad 3730- Frente a Mza. 12","Santa Fe","4572523 ctx 2523",,"No","Provincial","Provincial- Decreto Nacional 939",0147,"Santa Fe","La Capital","Santa Fe","-31.663442893574","-60.7262862841"
50,"05600303","CS Fonavi Barrio Estanislao López","Pasas 352 Bo Fonavi","Cañada De Gómez","03471-420060",,"No","Provincial","Provincial- Decreto Nacional 939",0126,"Cañada de Gómez","Iriondo","Rosario","-32.81966","-61.38038"
103,"06301741","CS Fonavi Barrio Las Flores II","Lamadrid 7689","Santa Fe","0342-4579278 ctx 9278",,"No","Provincial","Provincial- Decreto Nacional 939",0147,"Santa Fe","La Capital","Santa Fe","-31.592518852346","-60.712971643893"
417,"04201375","CS Fonavi Bº Malvinas Argentinas","Valdez 555","Venado Tuerto","03462/427747",,"No","Municipal","Municipal/Comunal",0077,"Venado Tuerto","General López","Venado Tuerto","-33.726944360429","-61.97811296254"
604,"11900629","CS Fonavi Sagrado Corazón","J. Ingenieros 1890 y F. García","San Lorenzo",,,"No","Municipal","Municipal/Comunal",0301,"San Lorenzo","San Lorenzo","Rosario","-32.739828516393","-60.747764748723"
348,"13300157","CS Fortín Charrúa","Fortín Charrúa","Fortin Charrua",,,"No","Provincial","Provincial- Decreto Nacional 939",4149,"Fortín Olmos","Vera","Reconquista","-29.12842","-60.9343"
316,"11900297","CS Fray Luis Beltrán","Presidente Perón 400","Fray Luis Beltrán","0341/4916581","accionsocial@frayluisbeltran.gov.ar","Si","Municipal","Municipal/Comunal",0280,"Fray Luis Beltrán","San Lorenzo","Rosario","-32.79419","-60.72931"
455,"02100512","CS Frontera","Cullen 450 (Castellanos)","Frontera","03564 311888",,"No","Municipal","SAMCo. Ley Provincial 63/12",0035,"Frontera","Castellanos","Rafaela","-31.43905","-62.06273"
474,"02100792","CS Garibaldi","Principal s/n - Al lado de la comuna","Garibaldi",,,"No","Municipal","Dep. de SAMCo.",2259,"Garibaldi","Castellanos","Rafaela","-31.65017","-61.80667"
492,"02800051","CS General Gelly","Belgrano y Dr. Alem","General Gelly","02477/490004","samcogralgelly@gmail.com","No","Municipal","SAMCo. Ley Provincial 63/12",2448,"General Gelly","Constitución","Rosario","-33.60074","-60.59846"
162,"07700135","CS General Güemes","Querandíes y Matacos","Tostado",,,"No","Provincial","Provincial- Decreto Nacional 939",0175,"Tostado","9 De Julio","Rafaela","-29.22629","-61.77634"
186,"08402448","CS General Lagos","Lisandro de la Torre 1191","General Lagos","03402/490306","samcograllagos@hotmail.com","No","Provincial","SAMCo. Ley Provincial 63/12",3407,"General Lagos","Rosario","Rosario","-33.11173","-60.56112"
400,"10500503","CS General Urquiza Barrio Basualdo","Zona Suburbana","Coronda",,,"No","Municipal","Municipal/Comunal",0245,"Coronda","San Jerónimo","Santa Fe","-31.99909","-60.92321"
687,"08400666","CS Gerontocomio Municipal","Grandoli 3450","Rosario","0341-4809774","hogarmayores@rosario.gov.ar","Si","Municipal","Municipal/Comunal",0210,"Rosario","Rosario","Rosario","-32.887138888889","-60.733194444444"
280,"10500261","CS Géssler","Risso Patrón 1140","Gessler","03404/497062 ctx 6200",,"No","Municipal","SAMCo. Ley Provincial 63/12",3785,"Gessler","San Jerónimo","Santa Fe","-31.87666","-61.12769"
493,"02800069","CS Godoy","Sáenz Peña 275","Godoy","03460/497037","comunadegodoy@ri.com.ar","No","Municipal","SAMCo. Ley Provincial 63/12",2455,"Godoy","Constitución","Rosario","-33.36853","-60.50579"
350,"13300181","CS Golondrina","Zona urbana","Golondrina",,,"No","Provincial","Provincial- Decreto Nacional 939",4163,"Golondrina","Vera","Reconquista","-28.55722","-60.0226"
409,"01400326","CS Granaderos a caballo","San Lorenzo 1215","Casilda","03464-427806",,"No","Municipal","Municipal/Comunal",0028,"Casilda","Caseros","Rosario","-33.049735097741","-61.155770008172"
142,"07000532","CS Grutly Norte","Zona urbana","Grutly","03496/492558","samco_grutly@hotmail.com","No","Provincial","SAMCo. Ley Provincial 63/12",3085,"Grutly","Las Colonias","Santa Fe","-31.21797","-61.10345"
125,"07000311","CS Grutly Sur Prudencio Díaz","E. Vollenweider s/n","Grutly","03496/492580","samco_grutly@hotmail.com","No","Municipal","Provincial- Decreto Nacional 939",3085,"Grutly","Las Colonias","Santa Fe","-31.26992","-61.07175"
688,"06309397","CS Guadalupe Central Padre Trucco","Javier de La Rosa 1055","Santa Fe","0342- 4578924 ctx 8924",,"No","Provincial","SAMCo. Ley Provincial 63/12",0147,"Santa Fe","La Capital","Santa Fe","-31.602856219158","-60.675418067038"
27,"04900591","CS Guadalupe Norte","Zona urbana","Guadalupe Norte","03482-498052",,"No","Provincial","Provincial- Decreto Nacional 939",2805,"Guadalupe Norte","General Obligado","Reconquista","-28.93815","-59.56232"
881,"04203361","CS Güemes","Giacaglia 150","Venado Tuerto","03462-15310354",,"No","Municipal","Municipal/Comunal",0077,"Venado Tuerto","General López","Venado Tuerto","-33.740271759332","-61.942876848658"
98,"06301695","CS Gutiérrez Este","Avellaneda 4800","Santa Fe"," 0342-4574829 ctx 4829","csgutierrezeste@santafe.gov.ar","No","Provincial","Provincial- Decreto Nacional 939",0147,"Santa Fe","La Capital","Santa Fe","-31.626904632276","-60.684512679501"
143,"07000541","CS Hipatia","San Martín s/n","Hipatia",,,"No","Provincial","Dep. de SAMCo.",3092,"Hipatia","Las Colonias","Santa Fe","-31.12547","-61.03167"
424,"06301849","CS Hipólito Irigoyen","Lubary y M. Candioti 4800 S. T.","Santo Tomé","0342-4753466",,"No","Provincial","Provincial- Decreto Nacional 939",0154,"Santo Tomé","La Capital","Santa Fe","-31.697350000","-60.760816667"
412,"04201031","CS Horacio Fredriksson","Florida 1198","Firmat","03465-421751",,"No","Municipal","Municipal/Comunal",0063,"Firmat","General López","Venado Tuerto","-33.4459","-61.47964"
144,"07000559","CS Humboldt","Av. Santos Pedro Viani 1543","Humboldt","03496/480016, centrex: 1284","samcohumboldt@hotmail.com","No","Provincial","SAMCo. Ley Provincial 63/12",3099,"Humboldt","Las Colonias","Santa Fe","-31.40119","-61.08651"
174,"08400500","CS Ibarlucea","Corrientes 127","Ibarlucea","0341-4904082 ctx 4666","samcoybarlucea@hotmail.com","No","Provincial","SAMCo. Ley Provincial 63/12",3414,"Ibarlucea","Rosario","Rosario","-32.8518","-60.78718"
561,"04900176","CS Ingeniero Chanourdie","San Martín s/n","Ingeniero Chanourdie","03482/490924",,"No","Provincial","Provincial- Decreto Nacional 939",2812,"Ingeniero Chanourdie","General Obligado","Reconquista","-28.76077","-59.57626"
1249,"08423145","CS Ingeniero Mosconi","Ingeniero Mosconi y 9 de Julio","Villa Gobernador Gálvez","0341-4921874",,"No","Provincial","Provincial- Decreto Nacional 939",0217,"Villa Gobernador Gálvez","Rosario","Rosario","-33.02998","-60.648045"
585,"08403660","CS Intendente Andreu","Comandante Espora 488","Villa Gobernador Gálvez","0341-4983414",,"No","Municipal","Municipal/Comunal",0217,"Villa Gobernador Gálvez","Rosario","Rosario","-33.023778","-60.612972"
405,"06309368","CS Intercultural Natarentaca Com Nalequetegueta","A. Lincoln 1509","Recreo","0342-4967197",,"No","Municipal","Municipal/Comunal",0144,"Recreo","La Capital","Santa Fe","-31.497566667","-60.724300000"
573,"08404585","CS Isabel D. Maleandi","Avenida Pellegrini 2064","Alvear","0341-4921371","comunadealvear@hotmail.com","No","Municipal","Municipal/Comunal",3372,"Alvear","Rosario","Rosario","-33.059028285585","-60.615939474919"
1310,"04902369","CS Isla Guaycurú","Costa Río Paraná","Las Garzas",,,"No","Provincial","Provincial- Decreto Nacional 939",2833,"Las Garzas","General Obligado","Reconquista","-28.85344","-59.46785"
893,"08418267","CS Itatí","José Garibaldi 2502","Rosario","0341-4805879",,"No","Municipal","Municipal/Comunal",0210,"Rosario","Rosario","Rosario","-32.9825","-60.667389"
211,"08403371","CS Itatí","Marco Paz y García González","Villa Gobernador Gálvez","0341-4920343",,"No","Provincial","Provincial- Decreto Nacional 939",0217,"Villa Gobernador Gálvez","Rosario","Rosario","-33.033139","-60.6465"
110,"04201456","CS Iturbide","Caparrós 350","Venado Tuerto",,,"No","Municipal","Municipal/Comunal",0077,"Venado Tuerto","General López","Venado Tuerto","-33.76103748709","-61.950155565088"
378,"07000877","CS Jacinto L Arauz","Zona urbana","Jacinto L. Aráuz","03497-495994 comuna-cs",,"No","Provincial","Provincial- Decreto Nacional 939",3113,"Jacinto L. Aráuz","Las Colonias","Santa Fe","-30.73422","-60.97444"
394,"07700232","CS Jaime J Culler","Mariano Moreno s/n","Villa Minetti","03491-496512",,"No","Provincial","Provincial- Decreto Nacional 939",3344,"Villa Minetti","9 De Julio","Rafaela","-28.62251","-61.62863"
623,"08402031","CS Jean Henry Dunnant","Tte. Agneta 1535","Rosario","0341/4807808",,"No","Municipal","Municipal/Comunal",0210,"Rosario","Rosario","Rosario","-32.945667","-60.699639"
362,"06301539","CS Jorge Newbery","Sauces 1497","Sauce Viejo","0342-156120003","csnewbery@hotamil.com.ar","No","Municipal","Municipal/Comunal",3029,"Sauce Viejo","La Capital","Santa Fe","-31.718583333","-60.799450000"
732,"09100704","CS José Dho","Chacabuco 1970","San Cristóbal",,,"No","Provincial","Provincial- Decreto Nacional 939",0231,"San Cristóbal","San Cristóbal","Rafaela","-30.301346787093","-61.228564921018"
598,"11900548","CS José Hernández (Mun)","Misiones 721","San Lorenzo","03476-432916",,"No","Municipal","Municipal/Comunal",0301,"San Lorenzo","San Lorenzo","Rosario","-32.75708851864","-60.736881090052"
849,"11901548","CS José Hernández (Prov)","Batería Libertad 1100","San Lorenzo","03476-448232","capsjh@hotmail.com","No","Provincial","Provincial- Decreto Nacional 939",0301,"San Lorenzo","San Lorenzo","Rosario","-32.759351318049","-60.741170558637"
830,"08417493","CS José Raúl Ugarte","Suinda 980 (Mendoza 9500)","Rosario","0341-4807689",,"No","Municipal","Municipal/Comunal",0210,"Rosario","Rosario","Rosario","-32.94065","-60.75996"
468,"02100733","CS Josefina","Corrientes s/n","Josefina","03492-15599315","samcojosefina@hotmail.com","No","Provincial","SAMCo. Ley Provincial 63/12",2280,"Josefina","Castellanos","Rafaela","-31.40556","-61.99059"
654,"08405000","CS Juan B. Justo","J. B. Justo 2083","Rosario","0341/4804657",,"No","Municipal","Municipal/Comunal",0210,"Rosario","Rosario","Rosario","-32.914333333333","-60.693527777778"
422,"06301822","CS Juan Domingo Perón","7 de Marzo y J.J. Paso","Santo Tomé","0342-4753465",,"No","Provincial","Provincial- Decreto Nacional 939",0154,"Santo Tomé","La Capital","Santa Fe","-31.664866667","-60.776466667"
630,"08402782","CS Juan Pablo II","Cnel. Rosendo Fraga 2308","Rosario","(0341) 155114934",,"No","Municipal","Municipal/Comunal",0210,"Rosario","Rosario","Rosario","-32.95575","-60.709639"
690,"04201472","CS Juan XXIII","Sáenz Pena 1991","Venado Tuerto","03462-435744",,"No","Municipal","Municipal/Comunal",0077,"Venado Tuerto","General López","Venado Tuerto","-33.744064396864","-61.985692100542"
652,"08404313","CS Juana Azurduy","Fraga 1087 bis.","Rosario","0341-4804815",,"No","Municipal","Municipal/Comunal",0210,"Rosario","Rosario","Rosario","-32.916111111111","-60.711611111111"
28,"04900605","CS Julia Capozzolo Barrio Carmen Luisa","Barrio Carmen Luisa - Calle 12 y 83","Reconquista","(03482) 15614243",,"No","Provincial","Provincial- Decreto Nacional 939",0112,"Reconquista","General Obligado","Reconquista","-29.17592","-59.64467"
834,"08417529","CS Julio Maiztegui (Ex San Roque)","5 de Agosto 1523","Rosario","0341-4809760",,"No","Municipal","Municipal/Comunal",0210,"Rosario","Rosario","Rosario","-33.01687","-60.65024"
495,"02800085","CS Juncal","Mitre 190","Juncal","02473/492200/392","josevillata@live.com.ar","No","Municipal","SAMCo. Ley Provincial 63/12",2469,"Juncal","Constitución","Rosario","-33.71532","-61.04455"
215,"08403479","CS Juntos Podemos Kolping","Nocetto 593","Rosario","0341/4807544",,"No","Provincial","Provincial- Decreto Nacional 939",0210,"Rosario","Rosario","Rosario","-32.95667","-60.70342"
359,"13300271","CS Km 115","RP 83 S Km 115","La Gallareta",,,"No","Provincial","Provincial- Decreto Nacional 939",4177,"La Gallareta","Vera","Reconquista","-29.47787","-60.5571"
88,"06301431","CS La Boca - Ramón Rivero","Manzana 10- Alto Verde","Santa Fe","0342-156152067","cslaboca@santafe.gov.ar","No","Provincial","Provincial- Decreto Nacional 939",0147,"Santa Fe","La Capital","Santa Fe","-31.66352","-60.70081"
249,"09800030","CS La Brava","Zona rural","La Brava","0342-154064661",,"No","Provincial","Dep. de SAMCo.",3708,"La Brava","San Javier","Santa Fe","-30.44644","-60.14008"
242,"09100496","CS La Cabral","Zona urbana","La Cabral"," 03408-423450 Comuna",,"No","Municipal","Provincial- Decreto Nacional 939",3561,"La Cabral","San Cristóbal","Rafaela","-30.08739","-61.1779"
302,"11200333","CS La Camila","RP 56 S","La Camila","03498-472000",,"No","Provincial","Dep. de SAMCo.",3897,"La Camila","San Justo","Santa Fe","-30.08025","-60.56284"
525,"04200174","CS La Chispa","Zona Suburbana","La Chispa","03462/487042",,"No","Provincial","Provincial- Decreto Nacional 939",2658,"La Chispa","General López","Venado Tuerto","-33.543","-61.97231"
287,"11200040","CS La Criolla","Misiones s/n","La Criolla (Est. Cañadita)","03498/49483(comuna)",,"No","Municipal","SAMCo. Ley Provincial 63/12",3904,"La Criolla (Est. Cañadita)","San Justo","Santa Fe","-30.22545","-60.36127"
618,"08402570","CS La Florida","Braile 1205","Rosario","0341-4806637",,"No","Municipal","Municipal/Comunal",0210,"Rosario","Rosario","Rosario","-32.883","-60.700555555556"
58,"06300052","CS La Guardia","Km 0 Ruta Provincial 1","La Guardia","0342 4577013 ctx 7013",,"No","Provincial","Provincial- Decreto Nacional 939",0147,"Santa Fe","La Capital","Santa Fe","-31.638283333","-60.626300000"
706,"04901801","CS La Lola","Asentamiento Aborigen La Lola","La Lola","03482 15551108",,"No","Provincial","Provincial- Decreto Nacional 939",0112,"Reconquista","General Obligado","Reconquista","-29.19616","-59.74108"
243,"09100500","CS La Lucila","Zona urbana","La Lucila","03408/424873",,"No","Municipal","SAMCo. Ley Provincial 63/12",3575,"La Lucila","San Cristóbal","Rafaela","-30.4191","-61.00401"
299,"11200261","CS La Penca Y Caraguata","Zona urbana","La Penca Y Caraguatá","03498-491056",,"No","Provincial","Provincial- Decreto Nacional 939",3911,"La Penca y Caraguatá","San Justo","Santa Fe","-30.34662","-60.52179"
206,"08403223","CS La Posta","Nicolás Avellaneda 330","Rosario","0341/4724658",,"No","Provincial","Provincial- Decreto Nacional 939",0210,"Rosario","Rosario","Rosario","-32.933833333333","-60.677972222222"
10,"04900346","CS La Reserva","la reserva","La Reserva",,,"No","Provincial","Provincial- Decreto Nacional 939",2868,"Villa Ana","General Obligado","Reconquista","-28.49994","-59.51559"
53,"05600427","CS La Rivera","Bo. La Ribera Villa La Ribera","Oliveros",,,"No","Provincial","Dep. de SAMCo.",2917,"Oliveros","Iriondo","Rosario","-32.643","-60.83589"
232,"09100348","CS La Rubia","Rivadavia s/n","La Rubia"," 03491-495866 Comuna loc.",,"No","Municipal","SAMCo. Ley Provincial 63/12",3582,"La Rubia","San Cristóbal","Rafaela","-30.11047","-61.79294"
563,"04900192","CS La Sarita","La Sarita","La Sarita","03482-15614250","lasarita@hotmail.com","No","Municipal","SAMCo. Ley Provincial 63/12",2819,"La Sarita","General Obligado","Reconquista","-28.97272","-59.84905"
502,"02800166","CS La Vanguardia","Rosario y San Lorenzo","La Vanguardia","03469 - 493020","comuna@comunalavanguardia.com.ar","No","Municipal","SAMCo. Ley Provincial 63/12",2476,"La Vanguardia","Constitución","Rosario","-33.35827","-60.65897"
523,"04200115","CS Labordeboy","Congreso 108","Labordeboy","03465/495278","samcolabordeboy@hotmail.com","No","Municipal","SAMCo. Ley Provincial 63/12",2665,"Labordeboy","General López","Venado Tuerto","-33.71768","-61.315"
279,"10500252","CS Larrechea","Zona urbana","Larrechea","03404/499033",,"No","Municipal","SAMCo. Ley Provincial 63/12",3799,"Larrechea","San Jerónimo","Santa Fe","-31.93565","-61.04598"
371,"06309388","CS Las Delicias","Alfonsina Storni 3100","Santa Fe","0342-4579277 ctx 9277",,"No","Provincial","Provincial- Decreto Nacional 939",0147,"Santa Fe","La Capital","Santa Fe","-31.583087905911","-60.695087776606"
633,"08402791","CS Las Flores","Flor de Nácar 6983","Rosario","0341-4809772",,"No","Municipal","Municipal/Comunal",0210,"Rosario","Rosario","Rosario","-33.018666666667","-60.660527777778"
645,"08404381","CS Las Flores Este","Khantuta 1397","Rosario","0341-4809767",,"No","Municipal","Municipal/Comunal",0210,"Rosario","Rosario","Rosario","-33.012","-60.652666666667"
360,"13300297","CS Las Gamas","Las Gamas","Las Gamas",,,"No","Provincial","Provincial- Decreto Nacional 939",0336,"Vera","Vera","Reconquista","-29.40296","-60.38634"
564,"04900206","CS Las Garzas","San Martín s/n","Las Garzas","03482 493209",,"No","Provincial","Provincial- Decreto Nacional 939",2833,"Las Garzas","General Obligado","Reconquista","-28.84757","-59.50054"
885,"06309290","CS Las Lomas","Camino Viejo Esperanza 7000","Santa Fe",,,"No","Provincial","Provincial- Decreto Nacional 939",0147,"Santa Fe","La Capital","Santa Fe","-31.596266670","-60.735450000"
244,"09100518","CS Las Palmeras","Av. República Argentina","Las Palmeras","0349-491007",,"No","Provincial","Provincial- Decreto Nacional 939",3596,"Las Palmeras","San Cristóbal","Rafaela","-30.62984","-61.62595"
392,"07000923","CS Las Tunas","San Martín s/n","Las Tunas","0342 4992002 ctx 5442",,"No","Provincial","Provincial- Decreto Nacional 939",3127,"Las Tunas","Las Colonias","Santa Fe","-31.57153","-60.99609"
526,"04200182","CS Lazzarino","Manz 8 s/n entre manz 7 y 9","Lazzarino","03382-492614 ctx 7564",,"No","Provincial","Provincial- Decreto Nacional 939",2672,"Lazzarino","General López","Venado Tuerto","-34.16586","-62.42868"
447,"02100270","CS Lehmann","Güemes y Almafuerte","Lehmann"," 03492-480400-407400",,"No","Municipal","SAMCo. Ley Provincial 63/12",2287,"Lehmann","Castellanos","Rafaela","-31.12639","-61.45138"
896,"08418645","CS Libertad (Ex Aborígenes Argentinos)","Calle 1816 Nº 4496","Rosario","0341-4347575",,"No","Provincial","Provincial- Decreto Nacional 939",0210,"Rosario","Rosario","Rosario","-32.983","-60.707"
119,"06302390","CS Lisandro De La Torre","Agustín Delgado y Alberdi","Santo Tomé","0342-4753467",,"No","Provincial","Provincial- Decreto Nacional 939",0154,"Santo Tomé","La Capital","Santa Fe","-31.676733333","-60.797316667"
92,"06301491","CS Llambi Campbell","Laprida 331","Llambi Campbell","03497-421020",,"No","Provincial","SAMCo. Ley Provincial 63/12",2994,"Llambi Campbell","La Capital","Santa Fe","-31.185983333","-60.748133333"
283,"10500465","CS Loma Alta","Mayor Gainza s/n","Loma Alta","03404/457020",,"No","Municipal","SAMCo. Ley Provincial 63/12",3806,"Loma Alta","San Jerónimo","Santa Fe","-31.96082","-61.17627"
680,"06309384","CS Los Hornos Norte","Libertad y Calle 110","Laguna Paiva",,,"No","Municipal","Municipal/Comunal",0140,"Laguna Paiva","La Capital","Santa Fe","-31.274533333","-60.662616667"
259,"09800161","CS Los Jacintos","Zona rural","Los Jacintos",,,"No","Provincial","Provincial- Decreto Nacional 939",3687,"Alejandra","San Javier","Reconquista","-29.85798","-59.81908"
25,"04900575","CS Los Lapachos","Zona rural","Los Lapachos","(03482) -474101",,"No","Provincial","Provincial- Decreto Nacional 939",2812,"Ingeniero Chanourdie","General Obligado","Reconquista","-28.7451","-59.66789"
12,"04900362","CS Los Laureles","Zona rural","Los Laureles",,,"No","Municipal","SAMCo. Ley Provincial 63/12",2840,"Los Laureles","General Obligado","Reconquista","-29.36892","-59.73795"
437,"01400105","CS Los Molinos","Martín Fierro 164","Los Molinos","03464/495145","samcolosmolinos@hotmail.com.ar","No","Municipal","SAMCo. Ley Provincial 63/12",2077,"Los Molinos","Caseros","Rosario","-33.10518","-61.33006"
1326,"08423163","CS Los Pinos","RP 18 S Paraje El Carmelo","Villa Amelia","(03402) 492961 km 10-5 Zona Ru",,"No","Provincial","Provincial- Decreto Nacional 939",3456,"Villa Amelia","Rosario","Rosario","-33.148056","-60.716944"
300,"11200279","CS Los Saladillos","Zona rural","Los Saladillos","Samco San Javier",,"No","Provincial","Provincial- Decreto Nacional 939",0259,"San Justo","San Justo","Santa Fe","-30.72888","-60.2775"
357,"13300246","CS Los Tábanos","Zona urbana","Los Tabanos (K.366)",,,"No","Provincial","Provincial- Decreto Nacional 939",4163,"Golondrina","Vera","Reconquista","-28.45809","-59.98245"
693,"00700679","CS Los Ucles","Calle 9 Nº 1187","Las Parejas",,,"No","Municipal","Municipal/Comunal",0014,"Las Parejas","Belgrano","Rosario","-32.68418","-61.51343"
513,"03500077","CS Los Zapallos","Zona rural","Los Zapallos",,"capsloszapallos@hotmail.com","No","Provincial","Provincial- Decreto Nacional 939",2567,"Santa Rosa de Calchines","Garay","Santa Fe","-31.49164","-60.42787"
833,"08417520","CS Luchemos por la vida","Juan Francisco Seguí 6552","Rosario","0341/4807697",,"No","Municipal","Municipal/Comunal",0210,"Rosario","Rosario","Rosario","-32.970889","-60.709861"
41,"05600117","CS Lucio V. López","San Martín 339","Lucio V. López","03476/491089","comunavlopez@yahoo.com.ar","No","Municipal","SAMCo. Ley Provincial 63/12",2910,"Lucio V. López","Iriondo","Rosario","-32.71199","-61.02277"
616,"08402561","CS Ludueña Norte Y Moreno","Junín 5236","Rosario","0341/4351530",,"No","Municipal","Municipal/Comunal",0210,"Rosario","Rosario","Rosario","-32.927111111111","-60.695666666667"
591,"11900351","CS Luis Cristallini","C. Colon 1560","Capitán Bermúdez","0341-4917353",,"No","Municipal","Municipal/Comunal",0266,"Capitán Bermúdez","San Lorenzo","Rosario","-32.807475119647","-60.720476372544"
632,"08401999","CS Luis Pasteur","Ayolas 270","Rosario","0341/4809778",,"No","Municipal","Municipal/Comunal",0210,"Rosario","Rosario","Rosario","-32.978861111111","-60.634083333333"
675,"02800484","CS Luzuriaga","Bo. Luzuriaga","Villa Constitución","03461-15354691",,"No","Municipal","Municipal/Comunal",0056,"Villa Constitución","Constitución","Rosario","-33.25967","-60.30595"
59,"06300061","CS Mabel Montes Bo Guadalupe Oeste","Risso 1745 - Bo. Guadalupe Oeste","Santa Fe","0342/4579209, centrex: 9209",,"No","Provincial","Provincial- Decreto Nacional 939",0147,"Santa Fe","La Capital","Santa Fe","-31.602939337627","-60.683664836752"
353,"07700208","CS Madre Teresa De Calcuta","Santo Domingo y Perezlindo","Tostado",,,"No","Municipal","Municipal/Comunal",0175,"Tostado","9 De Julio","Rafaela","-29.23988","-61.77475"
902,"04203991","CS Maggiolo","Carreras Entre Genova y Garibaldi","Maggiolo","03462-492261","capsmaggiolo@hotmail.com.ar","No","Municipal","Municipal/Comunal",2679,"Maggiolo","General López","Venado Tuerto","-33.72717","-62.25109"
634,"08403240","CS Marcelino Champagnat","Aarón Castellanos 3935","Rosario","0341-4805648",,"No","Municipal","Municipal/Comunal",0210,"Rosario","Rosario","Rosario","-32.976305555556","-60.684277777778"
288,"11200058","CS Marcelino Escalada","Romeo Rizzatti 410","Marcelino Escalada","03498/493000, centrex: 2031",,"No","Municipal","SAMCo. Ley Provincial 63/12",3918,"Marcelino Escalada","San Justo","Santa Fe","-30.58143","-60.4692"
1248,"13300939","CS Margarita","San Martín y Moreno","Margarita","03483-498422",,"No","Provincial","Dep. de SAMCo.",4191,"Margarita","Vera","Reconquista","-29.68272","-60.25168"
584,"08403651","CS María Auxiliadora","Suarez 480","Villa Gobernador Gálvez","0341-4928801",,"No","Municipal","Municipal/Comunal",0217,"Villa Gobernador Gálvez","Rosario","Rosario","-33.03446","-60.60725"
448,"02100288","CS María Juana","Belgrano 252","María Juana","03406/471795",,"No","Municipal","SAMCo. Ley Provincial 63/12",2294,"María Juana","Castellanos","Rafaela","-31.67738","-61.75473"
139,"07000494","CS María Luisa","Malvinas Argentina s/n","María Luisa","03497/496123","samco_marialuisa@hotmail.com","No","Municipal","SAMCo. Ley Provincial 63/12",3134,"María Luisa","Las Colonias","Santa Fe","-31.01134","-60.91028"
837,"08417565","CS Martin","Mariano Moreno 950","Rosario","0341 - 4802303",,"No","Municipal","Municipal/Comunal",0210,"Rosario","Rosario","Rosario","-32.946083333333","-60.651027777778"
261,"04201804","CS Materno Infantil","Agüero 423","Venado Tuerto",,,"No","Municipal","Municipal/Comunal",0077,"Venado Tuerto","General López","Venado Tuerto","-33.736091153999","-61.96897867704"
128,"07000354","CS Matilde","Santa Fe 632","Matilde","0342-4993139","samcomatilde@gmail.com","No","Municipal","SAMCo. Ley Provincial 63/12",3141,"Matilde","Las Colonias","Santa Fe","-31.79325","-60.98298"
624,"08402995","CS Mauricio Casals","Juan Francisco Seguí 5305","Rosario","0341-4805625",,"No","Municipal","Municipal/Comunal",0210,"Rosario","Rosario","Rosario","-32.970556","-60.694889"
543,"04200522","CS Melincué","San Martín 85","Melincué","03465/499804","samcodemelincue@hotmail.com","No","Municipal","Provincial- Decreto Nacional 939",2693,"Melincué","General López","Venado Tuerto","-33.657167440358","-61.453830097083"
684,"08403321","CS Melvin Jones","Estac. Terminal de Ómnibus","Rosario",,,"No","Municipal","Municipal/Comunal",0210,"Rosario","Rosario","Rosario","-32.939167","-60.670722"
506,"02800301","CS Miguel Rueda","E. López 684","Rueda","03400/496020","comunarueda@arnet.com.ar","No","Provincial","SAMCo. Ley Provincial 63/12",2511,"Rueda","Constitución","Rosario","-33.35095","-60.459817"
540,"04200484","CS Miguel Torres","San Miguel s/n","Miguel Torres","03465/422110",,"No","Municipal","SAMCo. Ley Provincial 63/12",2700,"Miguel Torres","General López","Venado Tuerto","-33.52733","-61.46597"
900,"07700640","CS Mocoví","Chaco s/n","Tostado","03491-474130",,"No","Municipal","Municipal/Comunal",0175,"Tostado","9 De Julio","Rafaela","-29.21564","-61.76795"
272,"10500163","CS Monje","Córdoba y Ruta 65","Monje","03466/498188","samcomonje@hotmail.com.ar","No","Municipal","SAMCo. Ley Provincial 63/12",3827,"Monje","San Jerónimo","Rosario","-32.35519","-60.94691"
83,"06300559","CS Monte Vera","General López 5718","Monte Vera","0342/4904033 centrex9246","samcomontevera@yahoo.com.ar","No","Provincial","SAMCo. Ley Provincial 63/12",3001,"Monte Vera","La Capital","Santa Fe","-31.518583333","-60.679250000"
157,"07700054","CS Montefiore","Dr. Luis Drunge s/n","Montefiore",,,"No","Provincial","Provincial- Decreto Nacional 939",3316,"Montefiore","9 De Julio","Rafaela","-29.666778","-61.866564"
555,"04900052","CS Moussy","Zona urbana","Moussy","03482/15614241- 481344",,"No","Provincial","Provincial- Decreto Nacional 939",0091,"Avellaneda","General Obligado","Reconquista","-29.01717","-59.68741"
289,"11200066","CS Nare","Zona urbana","Naré","03498-494012",,"No","Provincial","Provincial- Decreto Nacional 939",3925,"Naré","San Justo","Santa Fe","-30.94932","-60.46723"
2,"04900231","CS Nicanor Molina","N. E. Molinas 405 Km. 19","Nicanor Molinas","03482-420026",,"No","Provincial","Provincial- Decreto Nacional 939",2847,"Nicanor Molinas","General Obligado","Reconquista","-29.13","-59.83275"
579,"08403398","CS Niño Jesús","Rivadavia 1250","Villa Gobernador Gálvez","0341-928804",,"No","Municipal","Municipal/Comunal",0217,"Villa Gobernador Gálvez","Rosario","Rosario","-33.016806","-60.626972"
418,"04201383","CS Nro. 1","Castelli y España","Elortondo","03462-471274","comunaelortondo@lg.com.ar","No","Municipal","Municipal/Comunal",2644,"Elortondo","General López","Venado Tuerto","-33.69475","-61.61837"
460,"02100563","CS Nro. 1","Francia y Zalletti","Rafaela","03492/452849","samco1rafaela@gmail.com","No","Provincial","Provincial- Decreto Nacional 939",0042,"Rafaela","Castellanos","Rafaela","-31.23198","-61.47058"
487,"02101268","CS Nro. 1 Mariano Moreno","C. Gardel 550","Sunchales","03493-421626",,"No","Provincial","Provincial- Decreto Nacional 939",0049,"Sunchales","Castellanos","Rafaela","-31.23638","-61.48153"
182,"08401981","CS Nro. 10 Villa Manuelita","Ricardo Guiraldes 298 bis.","Rosario","0341/4809434",,"No","Provincial","Provincial- Decreto Nacional 939",0210,"Rosario","Rosario","Rosario","-32.986611111111","-60.627805555556"
170,"08400135","CS Nro. 11 Pueblo Nuevo","Buenamesson 580","Villa Gobernador Gálvez","0341/4922777",,"No","Provincial","Provincial- Decreto Nacional 939",0217,"Villa Gobernador Gálvez","Rosario","Rosario","-33.009056","-60.615972"
213,"08403452","CS Nro. 11 Villa Corrientes","José de Amenábar 1329","Rosario","0341/4808420",,"No","Provincial","Provincial- Decreto Nacional 939",0210,"Rosario","Rosario","Rosario","-32.971611","-60.647833"
201,"08403169","CS Nro. 12 Dr. García Piatti","Balcarce 3850","Rosario","0341/4809431",,"No","Provincial","Provincial- Decreto Nacional 939",0210,"Rosario","Rosario","Rosario","-32.979472222222","-60.660888888889"
202,"08403177","CS Nro. 13  Fonavi","Alfredo Rovillon 3671","Rosario","0341/4805411",,"No","Provincial","Provincial- Decreto Nacional 939",0210,"Rosario","Rosario","Rosario","-32.971667","-60.701"
191,"08402987","CS Nro. 14  Avellaneda Oeste","José de Amenábar 4122","Rosario","0341/4805414",,"No","Provincial","Provincial- Decreto Nacional 939",0210,"Rosario","Rosario","Rosario","-32.964778","-60.686028"
203,"08403185","CS Nro. 15 Juan Domingo Perón","Estrella Federal 1789","Rosario","0341/4809435","caps15lasflores@hotmail.com","No","Provincial","Provincial- Decreto Nacional 939",0210,"Rosario","Rosario","Rosario","-33.020416666667","-60.657527777778"
172,"08400411","CS Nro. 16 Pablo Vi","Genova 7257","Rosario","0341/4807542",,"No","Provincial","Provincial- Decreto Nacional 939",0210,"Rosario","Rosario","Rosario","-32.916194444444","-60.72"
173,"08400445","CS Nro. 17 Caritas Guadalupe","Domingo French 5496","Rosario","0341/480-9434",,"No","Provincial","Provincial- Decreto Nacional 939",0210,"Rosario","Rosario","Rosario","-32.921388888889","-60.699222222222"
187,"08402464","CS Nro. 18 San Fernando","Las Verbenas 3260","Granadero Baigorria","0341-4710369",,"No","Provincial","Provincial- Decreto Nacional 939",0196,"Granadero Baigorria","Rosario","Rosario","-32.83893","-60.71579"
194,"08403096","CS Nro. 19 La Cerámica","Ongamira 2889","Rosario","0341-4549434",,"No","Provincial","Provincial- Decreto Nacional 939",0210,"Rosario","Rosario","Rosario","-32.886972222222","-60.706861111111"
419,"04201391","CS Nro. 2 - Elortondo","Entre Ríos y General López","Elortondo","03462-471433-4751130",,"No","Municipal","Municipal/Comunal",2644,"Elortondo","General López","Venado Tuerto","-33.70552","-61.62317"
698,"02101946","CS Nro. 2 Ena Richiger- Bº 9 De Julio","Rotania 1336","Sunchales","03493-426732","caps2sunchalez.pnacer@hotmail.com","No","Municipal","Municipal/Comunal",0049,"Sunchales","Castellanos","Rafaela","-30.94666","-61.55073"
196,"08403118","CS Nro. 2 Fonavi Súper Cemento","A. J. Donado 911 Bis","Rosario","0341/4807540",,"No","Provincial","Provincial- Decreto Nacional 939",0210,"Rosario","Rosario","Rosario","-32.938555555556","-60.727055555556"
461,"02100571","CS Nro. 2 Materno Infantil","Ciudad de esperanza 1550","Rafaela","03492/441085"," caps2@samcorafaela.com.ar","No","Provincial","Provincial- Decreto Nacional 939",0042,"Rafaela","Castellanos","Rafaela","-31.27357","-61.47046"
195,"08403100","CS Nro. 20 La Esperanza","Pablo A. Pizzurno 1930","Rosario","0341/4549442",,"No","Provincial","Provincial- Decreto Nacional 939",0210,"Rosario","Rosario","Rosario","-32.897472222222","-60.7115"
171,"08400356","CS Nro. 21 Gabin 9","Aguaribay y Hudson","Pérez","0341/4956306",,"No","Provincial","Provincial- Decreto Nacional 939",0203,"Pérez","Rosario","Rosario","-32.96991","-60.7415"
204,"08403207","CS Nro. 22 González Loza","Bolognia 4787","Rosario","0341/4809430",,"No","Provincial","Provincial- Decreto Nacional 939",0210,"Rosario","Rosario","Rosario","-32.993416666667","-60.668805555556"
212,"08403436","CS Nro. 23 San Miguel","Eva Perón 634","Granadero Baigorria","0341-4714509",,"No","Provincial","Provincial- Decreto Nacional 939",0196,"Granadero Baigorria","Rosario","Rosario","-32.86306","-60.71083"
207,"08403291","CS Nro. 25 Fonavi","Calle 1110 Nº 2877","Rosario","0341/4805410",,"No","Provincial","Provincial- Decreto Nacional 939",0210,"Rosario","Rosario","Rosario","-32.967","-60.665861"
208,"08403304","CS Nro. 26 De La Comunidad Organizada","Tucumán 7363","Rosario","0341/4575665",,"No","Provincial","Provincial- Decreto Nacional 939",0210,"Rosario","Rosario","Rosario","-32.93275","-60.720666666667"
209,"08403312","CS Nro. 27 Ramón Carrillo","Tupac amaru 5515","Rosario","0341/4807543",,"No","Provincial","Provincial- Decreto Nacional 939",0210,"Rosario","Rosario","Rosario","-32.930638888889","-60.699111111111"
384,"08403444","CS Nro. 28 Sargento Cabral","Punta del Indio 8428","Rosario","0341/4809436",,"No","Provincial","Provincial- Decreto Nacional 939",0210,"Rosario","Rosario","Rosario","-33.03221","-60.68752"
217,"08403686","CS Nro. 29 Araoz De La Madrid","Laferrere 4629","Rosario","0341/4809437",,"No","Provincial","Provincial- Decreto Nacional 939",0210,"Rosario","Rosario","Rosario","-32.991638888889","-60.626388888889"
197,"08403126","CS Nro. 3 -  7 De Setiembre","Martín Estrada 8150","Rosario","0341/4807541",,"No","Provincial","Provincial- Decreto Nacional 939",0210,"Rosario","Rosario","Rosario","-32.912527777778","-60.73425"
550,"04201235","CS Nro. 3 Barrio Santa Rosa","Balcarce 4193","Venado Tuerto","03462-439952",,"No","Municipal","Municipal/Comunal",0077,"Venado Tuerto","General López","Venado Tuerto","-33.71224497231","-61.98379074199"
457,"02100539","CS Nro. 3 Santa Rosa De Lima","Santa Rosa 727","Rafaela","03492/453123"," caps3@samcorafaela.com.ar","No","Provincial","Provincial- Decreto Nacional 939",0042,"Rafaela","Castellanos","Rafaela","-31.250425214602","-61.468969298578"
219,"08404551","CS Nro. 30 Santa Rita","Chaco 422","Granadero Baigorria","0341/4714535",,"No","Provincial","Provincial- Decreto Nacional 939",0196,"Granadero Baigorria","Rosario","Rosario","-32.86746","-60.70006"
462,"02100598","CS Nro. 4 Virgen De Fátima","José Beltramino y Edu Libert","Rafaela","03492/426430"," caps4@samcorafaela.com.ar","No","Provincial","Provincial- Decreto Nacional 939",0042,"Rafaela","Castellanos","Rafaela","-31.2612","-61.48201"
216,"08403487","CS Nro. 47 Barrio Toba","J. J. Paso 5132","Rosario","0341/4804535",,"No","Provincial","Provincial- Decreto Nacional 939",0210,"Rosario","Rosario","Rosario","-32.919666666667","-60.694472222222"
449,"02100318","CS Nro. 5 Martin M Güemes","Luis Maggi 2040","Rafaela","03492/440199","caps5@samcorafaela.com.ar","No","Provincial","Provincial- Decreto Nacional 939",0042,"Rafaela","Castellanos","Rafaela","-31.235121054498","-61.509192471496"
199,"08403142","CS Nro. 5 Pedro Fiorina","Francia 3104","Rosario","0341/4805413","ibvenegas@hotmail.com","No","Provincial","Provincial- Decreto Nacional 939",0210,"Rosario","Rosario","Rosario","-32.968472222222","-60.672444444444"
188,"08402472","CS Nro. 54 Remanso Valerio","Barrio Remanso Valerio","Granadero Baigorria","0341/4714561",,"No","Provincial","Provincial- Decreto Nacional 939",0196,"Granadero Baigorria","Rosario","Rosario","-32.86745","-60.69052"
477,"02100849","CS Nro. 6 Barrio Amancay","Martín Oliber 1206","Rafaela","03492-431888"," caps6@samcorafaela.com.ar","No","Provincial","Provincial- Decreto Nacional 939",0042,"Rafaela","Castellanos","Rafaela","-31.261084833056","-61.508816847311"
79,"06300508","CS Nro. 6 Barrio Los Hornos","Facundo Zuviria 5859","Santa Fe","0342/4579241, Centrex: 9241","csloshornos@santafe.gov.ar","No","Provincial","Provincial- Decreto Nacional 939",0147,"Santa Fe","La Capital","Santa Fe","-31.612267920101","-60.705043580766"
192,"08403045","CS Nro. 6 Eva Perón- Rosario","Antonio Luis Beruti 2928","Rosario","0341/4808421",,"No","Provincial","Provincial- Decreto Nacional 939",0210,"Rosario","Rosario","Rosario","-32.974583","-60.626333"
193,"08403088","CS Nro. 7 - 12 De Octubre","Maestro Massa 470","Rosario","0341/4549422",,"No","Provincial","Provincial- Decreto Nacional 939",0210,"Rosario","Rosario","Rosario","-32.873638888889","-60.693805555556"
476,"02100831","CS Nro. 7 - 17 De Octubre","Monseñor Zaspe 1899","Rafaela","03492-453124"," caps7@samcorafaela.com.ar","No","Provincial","Provincial- Decreto Nacional 939",0042,"Rafaela","Castellanos","Rafaela","-31.268234395285","-61.506998287961"
485,"02100962","CS Nro. 8 Barrio Italia","C Bolliger 165","Rafaela","03492/423332","caps8@samcorafaela.com.ar","No","Provincial","Provincial- Decreto Nacional 939",0042,"Rafaela","Castellanos","Rafaela","-31.2439395808","-61.477100351077"
78,"06300486","CS Nro. 8 Barrio San Martin","Estrada Esq. Alberti","Santa Fe","0342-4579234 - Centrex:9234",,"No","Provincial","Provincial- Decreto Nacional 939",0147,"Santa Fe","La Capital","Santa Fe","-31.596933330","-60.716816670"
190,"08402715","CS Nro. 8 Independencia","Casiano Casas 1801","Rosario","0341-5252818",,"No","Provincial","Provincial- Decreto Nacional 939",0210,"Rosario","Rosario","Rosario","-32.898666666667","-60.713694444444"
486,"02100971","CS Nro. 9 Barrio Jardín","Brasca s/n","Rafaela","03492-453103","caps9@samcorafaela.com.ar","No","Provincial","Provincial- Decreto Nacional 939",0042,"Rafaela","Castellanos","Rafaela","-31.25503","-61.51495"
85,"06300583","CS Nro. 9 Barrio Nueva Pompeya","Av. Vera Peñaloza 8230","Santa Fe","0342- 4579293 ctx 9293",,"No","Provincial","Provincial- Decreto Nacional 939",0147,"Santa Fe","La Capital","Santa Fe","-31.587849351543","-60.711695126524"
200,"08403151","CS Nro. 9 San Francisquito","Gálvez 3501","Rosario","0341/4805412",,"No","Provincial","Provincial- Decreto Nacional 939",0210,"Rosario","Rosario","Rosario","-32.962861111111","-60.676611111111"
606,"11900301","CS Nuestra Señora De Fátima- Vecinal Bella Vista","Brasil 915 Bº Esther","Puerto General San Martín","03476-429082",,"No","Municipal","Municipal/Comunal",0287,"Puerto General San Martín","San Lorenzo","Rosario","-32.7008","-60.73345"
408,"01400181","CS Nueva Roma 1","Chile 2421","Casilda",,,"No","Municipal","Municipal/Comunal",0028,"Casilda","Caseros","Rosario","-33.047180215053","-61.178597714094"
668,"01400415","CS Nueva Roma 2","Hipólito Yrigoyen y Alvear","Casilda"," 03464-425600",,"No","Provincial","Provincial- Decreto Nacional 939",0028,"Casilda","Caseros","Rosario","-33.054086559957","-61.190596047104"
1247,"06309793","CS Nuevo Horizonte","Carranza y Monseñor Rodríguez","Santa Fe","0342-4832022","salud@santafeciudad.gov.ar","No","Municipal","Municipal/Comunal",0147,"Santa Fe","La Capital","Santa Fe","-31.561016670","-60.732416670"
145,"07000567","CS Nuevo Torino","Belgrano 293","Nuevo Torino","03496 494601",,"No","Provincial","Provincial- Decreto Nacional 939",3148,"Nuevo Torino","Las Colonias","Santa Fe","-31.3465","-61.23698"
666,"09100691","CS Ñanducita","Zona urbana","Ñanducita",,,"No","Provincial","Dep. de SAMCo.",3624,"Ñanducita","San Cristóbal","Rafaela","-30.36992","-61.13306"
361,"13300319","CS Ogilvie","Zona urbana","Ogilvie",,,"No","Provincial","Provincial- Decreto Nacional 939",0336,"Vera","Vera","Reconquista","-29.35946","-60.18854"
42,"05600125","CS Oliveros","Entre Ríos 464","Oliveros","03476/498598",,"No","Municipal","Dep. de SAMCo.",2917,"Oliveros","Iriondo","Rosario","-32.57543","-60.84886"
722,"08400739","CS Oral Nro 4-Escuela Nro 615","Alem 3089","Rosario","0341-4728663",,"No","Provincial","Provincial- Decreto Nacional 939",0210,"Rosario","Rosario","Rosario","-32.974972222222","-60.635055555556"
69,"06300231","CS Oratorio San Lorenzo Padre Gasparotto","Amenábar 4000","Santa Fe","0342-4573369 Centrex 3369",,"No","Provincial","Provincial- Decreto Nacional 939",0147,"Santa Fe","La Capital","Santa Fe","-31.655954276699","-60.728962910532"
104,"06301750","CS Padre Cobo","P. de Vega 3800","Santa Fe","0342-4579244 Centrex 9244","capspadrecobo@hotmail.com","No","Provincial","Provincial- Decreto Nacional 939",0147,"Santa Fe","La Capital","Santa Fe","-31.607510040313","-60.711811117468"
224,"09100054","CS Palacios","Zona urbana","Palacios","  03409-492010 Comuna",,"No","Provincial","Provincial- Decreto Nacional 939",3631,"Palacios","San Cristóbal","Rafaela","-30.70756","-61.62141"
345,"13300122","CS Paraje 17","Paraje km 17","Toba",,,"No","Provincial","Provincial- Decreto Nacional 939",4205,"Toba","Vera","Reconquista","-29.19978","-60.28268"
343,"13300106","CS Paraje 29","Paraje El 29","Paraje 29",,,"No","Provincial","Provincial- Decreto Nacional 939",4149,"Fortín Olmos","Vera","Reconquista","-29.10804","-60.23803"
380,"10500597","CS Paraje La Boca","Paraje La Boca","Monje",,,"No","Provincial","Dep. de SAMCo.",3827,"Monje","San Jerónimo","Rosario","-32.33244","-60.87677"
20,"04900516","CS Paraje Las Claritas","Las Claritas","Arroyo Ceibal",,,"No","Provincial","Provincial- Decreto Nacional 939",2763,"Arroyo Ceibal","General Obligado","Reconquista","-28.57229","-59.52744"
31,"04900648","CS Paraje San Juan","Zona rural a 15 km de Villa Ana","Paraje San Juan",,,"No","Provincial","Provincial- Decreto Nacional 939",2875,"Villa Guillermina","General Obligado","Reconquista","-28.23932","-59.53588"
703,"04901202","CS Parque Industrial","Calle 40 N 1116 Entre Gral. López y Pje 2","Reconquista",,,"No","Provincial","Provincial- Decreto Nacional 939",0112,"Reconquista","General Obligado","Reconquista","-29.147168697543","-59.661797375051"
642,"08404411","CS Parque Sur","Bolonia 5350","Rosario","0341-4809196",,"No","Municipal","Municipal/Comunal",0210,"Rosario","Rosario","Rosario","-33.","-60.6685"
505,"02800298","CS Pavón","Mitre 2538","Pavón","03400-490221","comunadepavon@hotmail.com","No","Provincial","Provincial- Decreto Nacional 939",2490,"Pavón","Constitución","Rosario","-33.24234","-60.40559"
497,"02800107","CS Pavón Arriba","Bs. Aires 814","Pavón Arriba","03469/491541 ctx 9741",,"No","Municipal","SAMCo. Ley Provincial 63/12",2497,"Pavón Arriba","Constitución","Rosario","-33.3098","-60.82317"
90,"06301474","CS Pbro Germán Yossen","Bo. Los Hornos Laguna Paiva","Laguna Paiva",,,"No","Provincial","Dep. de SAMCo.",0140,"Laguna Paiva","La Capital","Santa Fe","-31.284183333","-60.657433333"
290,"11200074","CS Pedro Gómez Cello","Zona urbana","Pedro Gómez Cello","03498-491015","samcopgc187@hotmail.com","No","Municipal","SAMCo. Ley Provincial 63/12",3932,"Pedro Gómez Cello","San Justo","Santa Fe","-30.03587","-60.3125"
402,"12600394","CS Pedro Manasseri","J. Hernández y Rivadavia Bº San Pedro","Cañada Rosquín","03401-470263/470188","ccrosquin@volosat.com.ar","No","Municipal","Municipal/Comunal",4044,"Cañada Rosquín","San Martín","Rosario","-32.04778","-61.60755"
21,"04900524","CS Pedro Vicentin","Calle 307 N 1303","Avellaneda","03482-483029",,"No","Provincial","Dep. de SAMCo.",0091,"Avellaneda","General Obligado","Reconquista","-29.10993","-59.64721"
498,"02800115","CS Peyrano","Tucumán 162","Peyrano","03460/470466/101","samcopeyrano@hotmail.com","No","Municipal","SAMCo. Ley Provincial 63/12",2504,"Peyrano","Constitución","Rosario","-33.538354","-60.799745"
466,"02100709","CS Plaza Clucellas","Av. Buenos Aires 235","Estación Clucellas"," 03492-499337","ricardogonzalez58@hotmail.com","No","Municipal","SAMCo. Ley Provincial 63/12",2224,"Estación Clucellas","Castellanos","Rafaela","-31.45424","-61.70451"
835,"08417538","CS Pocho Lepratti","Caña de Ámbar 1667","Rosario","0341/4809529",,"No","Municipal","Municipal/Comunal",0210,"Rosario","Rosario","Rosario","-33.015027777778","-60.656361111111"
68,"06300222","CS Policlínico Centenario","Pietrabuena 3164","Santa Fe","0342-4573368","scpoliclinicocentenario@santafe.gov.ar","No","Provincial","Provincial- Decreto Nacional 939",0147,"Santa Fe","La Capital","Santa Fe","-31.663280354872","-60.719408011553"
75,"06300371","CS Policlínico Vecinal","Salvador del Carril 2240","Santa Fe","0342/4579206-4579208 ctx 9208","cssalvadordelcarril@santafe.gov.ar","No","Provincial","Provincial- Decreto Nacional 939",0147,"Santa Fe","La Capital","Santa Fe","-31.619106723466","-60.693998957395"
876,"08418294","CS Posta Sanitaria  El Triangulo","Chubut e Iriondo","Villa Gobernador Gálvez",,,"No","Municipal","Municipal/Comunal",0217,"Villa Gobernador Gálvez","Rosario","Rosario","-33.033972","-60.635472"
887,"04902036","CS Posta Sanitaria Don Carlos","Calle 127 Esq. Calle 72 Bo Don Carlos","Reconquista","(03482) - 15551412","postadoncarlos@hotmail.com.ar","No","Provincial","Provincial- Decreto Nacional 939",0112,"Reconquista","General Obligado","Reconquista","-29.18843397672","-59.683791976976"
161,"07700119","CS Pozo Borrado","Bv. La Reconquista s/n","Pozo Borrado",,,"No","Municipal","SAMCo. Ley Provincial 63/12",3323,"Pozo Borrado","9 De Julio","Rafaela","-28.93632","-61.7032"
346,"13300131","CS Pozo De Los Indios","RP 83 S - Km 101","Pozos De Los Indios","03482-490215",,"No","Municipal","Provincial- Decreto Nacional 939",4156,"Garabato","Vera","Reconquista","-28.95636","-60.24945"
